{"addresses": [{"address": "470-482 Oxford St Oxford Street London W1C 1LA England", "n": 1, "link_type": "Officer Corresponance Address", "node_type": "Company", "node": "13455377", "lat": "51.5140685", "lon": "-0.15476418987689888"}, {"address": "470-482 Oxford St Oxford Street London W1C 1LA England", "n": 1, "link_type": "Person of Significant Control Address", "node_type": "Company", "node": "13455377", "lat": "51.5140685", "lon": "-0.15476418987689888"}, {"address": "470-482 Oxford St Oxford Street London W1C 1LA England", "n": 1, "link_type": "Historic Address", "node_type": "Company", "node": "13455377", "lat": "51.5140685", "lon": "-0.15476418987689888"}, {"address": "407-409 Oxford St Artex Computers Limited Opposite Selfridges London W1C 2PB England", "n": 1, "link_type": "Historic Address", "node_type": "Company", "node": "13455377", "lat": 51.514041, "lon": -0.150829}, {"address": "474 Oxford St Oxford Street London W1C 1LA England", "n": 1, "link_type": "Historic Address", "node_type": "Company", "node": "13455377", "lat": "51.5150039", "lon": "-0.144136"}, {"address": "Flat 7 594 Commercial Road London E14 7JR England", "n": 1, "link_type": "Historic Address", "node_type": "Company", "node": "13455377", "lat": 51.512502, "lon": -0.037844}, {"address": "Flat 47 594 Commercial Road London E14 7JR England", "n": 2, "link_type": "Appointment Address", "node_type": "Person", "node": "FHa6xpWl842N03mouAYtCciAt_8", "lat": 51.512502, "lon": -0.037844}, {"address": "Flat 7 London E14 7JR England", "n": 2, "link_type": "Appointment Address", "node_type": "Person", "node": "FHa6xpWl842N03mouAYtCciAt_8", "lat": "51.4419849", "lon": "-0.0095177"}, {"address": "263 Camden High Street Camden High Street London NW1 7BU England", "n": 2, "link_type": "Appointment Address", "node_type": "Person", "node": "FHa6xpWl842N03mouAYtCciAt_8", "lat": 51.540148, "lon": -0.143948}, {"address": "25 Fabian Bell Tower Pancras Way London E3 2SD England", "n": 2, "link_type": "Appointment Address", "node_type": "Person", "node": "FHa6xpWl842N03mouAYtCciAt_8", "lat": 51.533538, "lon": -0.022854}, {"address": "Flat 47 594 Commercial Road London E14 7JR England", "n": 2, "link_type": "Officer Corresponance Address", "node_type": "Person", "node": "FHa6xpWl842N03mouAYtCciAt_8", "lat": 51.512502, "lon": -0.037844}, {"address": "34 Villiers Street London WC2N 6NJ England", "n": 3, "link_type": "Officer Corresponance Address", "node_type": "Company", "node": "07478039", "lat": "51.507604", "lon": "-0.123203"}, {"address": "1st Floor Manchester M25 9JY England", "n": 3, "link_type": "Officer Corresponance Address", "node_type": "Company", "node": "07478039", "lat": "53.4790669", "lon": "-2.2403062"}, {"address": "34 Villiers Street London WC2N 6NJ England", "n": 3, "link_type": "Person of Significant Control Address", "node_type": "Company", "node": "07478039", "lat": "51.507604", "lon": "-0.123203"}, {"address": "34 Villiers Street London WC2N 6NJ England", "n": 3, "link_type": "Historic Address", "node_type": "Company", "node": "07478039", "lat": "51.507604", "lon": "-0.123203"}, {"address": "2 Station Approach Marlebone Road London NW1 5LA", "n": 3, "link_type": "Historic Address", "node_type": "Company", "node": "07478039", "lat": 51.523131, "lon": -0.156879}, {"address": " 141 Franciscan Rd London SW17 8DS United Kingdom", "n": 3, "link_type": "Historic Address", "node_type": "Company", "node": "07478039", "lat": "51.4292721", "lon": "-0.1583003"}, {"address": "71-75 Shelton Street Covent Garden London WC2H 9JQ United Kingdom", "n": 3, "link_type": "Officer Corresponance Address", "node_type": "Company", "node": "11461249", "lat": "51.5148505", "lon": "-0.1256788"}, {"address": "15 Mercery Lane Canterbury CT1 2JJ United Kingdom", "n": 3, "link_type": "Officer Corresponance Address", "node_type": "Company", "node": "11461249", "lat": "51.27899375", "lon": "1.0809923825419252"}, {"address": "15 Mercery Lane Canterbury CT1 2JJ United Kingdom", "n": 3, "link_type": "Person of Significant Control Address", "node_type": "Company", "node": "11461249", "lat": "51.27899375", "lon": "1.0809923825419252"}, {"address": "71-75 Shelton Street Covent Garden London WC2H 9JQ United Kingdom", "n": 3, "link_type": "Person of Significant Control Address", "node_type": "Company", "node": "11461249", "lat": "51.5148505", "lon": "-0.1256788"}, {"address": "15 Mercery Lane Canterbury CT1 2JJ United Kingdom", "n": 3, "link_type": "Historic Address", "node_type": "Company", "node": "11461249", "lat": "51.27899375", "lon": "1.0809923825419252"}, {"address": "48 Great Russell Street London WC1B 3PA England", "n": 3, "link_type": "Historic Address", "node_type": "Company", "node": "11461249", "lat": "51.518006", "lon": "-0.1267345"}, {"address": "71-75 Shelton Street London Greater London WC2H 9JQ United Kingdom", "n": 3, "link_type": "Historic Address", "node_type": "Company", "node": "11461249", "lat": "51.5148161", "lon": "-0.1235229"}, {"address": "Flat 47 7 Sheppard Drive London SE16 3EJ United Kingdom", "n": 3, "link_type": "Officer Corresponance Address", "node_type": "Company", "node": "12126349", "lat": 51.489045, "lon": -0.061884}, {"address": "5-6 Coventry Street London W1D 6BW England", "n": 3, "link_type": "Officer Corresponance Address", "node_type": "Company", "node": "12126349", "lat": "51.5100658", "lon": "-0.1345062"}, {"address": "Flat 47 7 Sheppard Drive London SE16 3EJ United Kingdom", "n": 3, "link_type": "Person of Significant Control Address", "node_type": "Company", "node": "12126349", "lat": 51.489045, "lon": -0.061884}, {"address": "5-6 Coventry Street London W1D 6BW England", "n": 3, "link_type": "Historic Address", "node_type": "Company", "node": "12126349", "lat": "51.5100658", "lon": "-0.1345062"}, {"address": "Flat 47 7 Sheppard Drive London SE16 3EJ United Kingdom", "n": 3, "link_type": "Historic Address", "node_type": "Company", "node": "12126349", "lat": 51.489045, "lon": -0.061884}, {"address": "71-75 Shelton Street Covent Garden London WC2H 9JQ England", "n": 3, "link_type": "Historic Address", "node_type": "Company", "node": "12126349", "lat": "51.5148505", "lon": "-0.1256788"}, {"address": "71-75 Shelton Street London WC2H 9JQ United Kingdom", "n": 3, "link_type": "Historic Address", "node_type": "Company", "node": "12126349", "lat": "51.5148161", "lon": "-0.1235229"}, {"address": "Unit 2 Juxon House St. Paul's Churchyard London EC4M 8BU England", "n": 3, "link_type": "Historic Address", "node_type": "Company", "node": "12126349", "lat": 51.51415, "lon": -0.100251}, {"address": "48 Great Russell Street London WC1B 3PA England", "n": 3, "link_type": "Officer Corresponance Address", "node_type": "Company", "node": "10436966", "lat": "51.518006", "lon": "-0.1267345"}, {"address": "71-75 Shelton Street London WC2H 9JQ United Kingdom", "n": 3, "link_type": "Officer Corresponance Address", "node_type": "Company", "node": "10436966", "lat": "51.5148161", "lon": "-0.1235229"}, {"address": "48 Great Russell Street London WC1B 3PA England", "n": 3, "link_type": "Person of Significant Control Address", "node_type": "Company", "node": "10436966", "lat": "51.518006", "lon": "-0.1267345"}, {"address": "71-75 Shelton Street London WC2H 9JQ United Kingdom", "n": 3, "link_type": "Person of Significant Control Address", "node_type": "Company", "node": "10436966", "lat": "51.5148161", "lon": "-0.1235229"}, {"address": "48 Great Russell Street London WC1B 3PA England", "n": 3, "link_type": "Historic Address", "node_type": "Company", "node": "10436966", "lat": "51.518006", "lon": "-0.1267345"}, {"address": "71-75 Shelton Street Covent Garden London WC2H 9JQ United Kingdom", "n": 3, "link_type": "Historic Address", "node_type": "Company", "node": "10436966", "lat": "51.5148505", "lon": "-0.1256788"}, {"address": "Flat 142-144 Oxford Street London W1D 1LZ England", "n": 3, "link_type": "Historic Address", "node_type": "Company", "node": "13376158", "lat": 51.515962, "lon": -0.137549}, {"address": "146-148 Oxford Street London W1D 1NB England", "n": 3, "link_type": "Officer Corresponance Address", "node_type": "Company", "node": "12005370", "lat": "51.5155587", "lon": "-0.1398676"}, {"address": "124a Queensway London W2 6LS England", "n": 3, "link_type": "Officer Corresponance Address", "node_type": "Company", "node": "12005370", "lat": "51.5144845", "lon": "-0.1879367"}, {"address": "524 Oxford Street London W1C 1LN United Kingdom", "n": 3, "link_type": "Officer Corresponance Address", "node_type": "Company", "node": "12005370", "lat": "51.5137802", "lon": "-0.15706122440739861"}, {"address": "124a Queensway London W2 6LS England", "n": 3, "link_type": "Person of Significant Control Address", "node_type": "Company", "node": "12005370", "lat": "51.5144845", "lon": "-0.1879367"}, {"address": "146-148 Oxford Street London W1D 1NB England", "n": 3, "link_type": "Person of Significant Control Address", "node_type": "Company", "node": "12005370", "lat": "51.5155587", "lon": "-0.1398676"}, {"address": "524 Oxford Street London W1C 1LN United Kingdom", "n": 3, "link_type": "Person of Significant Control Address", "node_type": "Company", "node": "12005370", "lat": "51.5137802", "lon": "-0.15706122440739861"}, {"address": "25 Fabian Bell Tower London E3 2SD England", "n": 3, "link_type": "Historic Address", "node_type": "Company", "node": "12005370", "lat": 51.533538, "lon": -0.022854}, {"address": "124a Queensway London W2 6LS England", "n": 3, "link_type": "Historic Address", "node_type": "Company", "node": "12005370", "lat": "51.5144845", "lon": "-0.1879367"}, {"address": "146-148 Oxford Street London W1D 1NB England", "n": 3, "link_type": "Historic Address", "node_type": "Company", "node": "12005370", "lat": "51.5155587", "lon": "-0.1398676"}, {"address": "64 Canterbury Road Croydon CR0 3PW England", "n": 3, "link_type": "Historic Address", "node_type": "Company", "node": "12005370", "lat": "51.3864886", "lon": "-0.1130421"}, {"address": "395b Next To Rrs Properties London E3 4PB England", "n": 3, "link_type": "Appointment Address", "node_type": "Person", "node": "Jpod88ZD25UttBRLoQaoTeA4KC4", "lat": 51.525786, "lon": -0.032993}, {"address": "395b Next To Rrs Properties London E3 4PB England", "n": 3, "link_type": "Officer Corresponance Address", "node_type": "Person", "node": "Jpod88ZD25UttBRLoQaoTeA4KC4", "lat": 51.525786, "lon": -0.032993}, {"address": "10 Fawood Avenue London NW10 8DU England", "n": 3, "link_type": "Appointment Address", "node_type": "Person", "node": "flpImMENIgEVKD6l_uuerTgiY10", "lat": "51.5431983", "lon": "-0.2621953"}, {"address": "10 Fawood Avenue London NW10 8DU England", "n": 3, "link_type": "Officer Corresponance Address", "node_type": "Person", "node": "flpImMENIgEVKD6l_uuerTgiY10", "lat": "51.5431983", "lon": "-0.2621953"}, {"address": "146-148 0xfordst London W1D 1NB England", "n": 3, "link_type": "Appointment Address", "node_type": "Person", "node": "WWGUAanL13te4Yc53Oxyh-HNes8", "lat": 51.515948, "lon": -0.137654}, {"address": "Office 103 344 Ilford IG1 1QP England", "n": 3, "link_type": "Appointment Address", "node_type": "Person", "node": "WWGUAanL13te4Yc53Oxyh-HNes8", "lat": 51.560745, "lon": 0.083414}, {"address": "146-148 0xfordst London W1D 1NB England", "n": 3, "link_type": "Officer Corresponance Address", "node_type": "Person", "node": "WWGUAanL13te4Yc53Oxyh-HNes8", "lat": 51.515948, "lon": -0.137654}, {"address": "263 Camden High Street London NW1 7BU England", "n": 4, "link_type": "Officer Corresponance Address", "node_type": "Company", "node": "11673524", "lat": "51.5388338", "lon": "-0.1423873"}, {"address": "263 Camden High Camden High Street London NW1 7BU England", "n": 4, "link_type": "Officer Corresponance Address", "node_type": "Company", "node": "11673524", "lat": 51.540148, "lon": -0.143948}, {"address": "263 Camden High Street London NW1 7BU United Kingdom", "n": 4, "link_type": "Officer Corresponance Address", "node_type": "Company", "node": "11673524", "lat": "51.5388338", "lon": "-0.1423873"}, {"address": "263 Camden High Street London NW1 7BU United Kingdom", "n": 4, "link_type": "Person of Significant Control Address", "node_type": "Company", "node": "11673524", "lat": "51.5388338", "lon": "-0.1423873"}, {"address": "263 Camden High Street London NW1 7BU England", "n": 4, "link_type": "Historic Address", "node_type": "Company", "node": "11673524", "lat": "51.5388338", "lon": "-0.1423873"}, {"address": "Flat 11 Tabriz Court 17 Fulton Road Wembley HA9 0FG United Kingdom", "n": 4, "link_type": "Historic Address", "node_type": "Company", "node": "11673524", "lat": 51.560927, "lon": -0.27903}, {"address": "263 Camden High Street London NW1 7BU England", "n": 4, "link_type": "Officer Corresponance Address", "node_type": "Company", "node": "13599275", "lat": "51.5388338", "lon": "-0.1423873"}, {"address": "263 Camden High Street London NW1 7BU England", "n": 4, "link_type": "Person of Significant Control Address", "node_type": "Company", "node": "13599275", "lat": "51.5388338", "lon": "-0.1423873"}, {"address": "263 Camden High Street London NW1 7BU England", "n": 4, "link_type": "Historic Address", "node_type": "Company", "node": "13599275", "lat": "51.5388338", "lon": "-0.1423873"}, {"address": "263 Camden High Street London NW1 7BU England", "n": 4, "link_type": "Officer Corresponance Address", "node_type": "Company", "node": "14197425", "lat": "51.5388338", "lon": "-0.1423873"}, {"address": "263 Camden High Street London NW1 7BU England", "n": 4, "link_type": "Person of Significant Control Address", "node_type": "Company", "node": "14197425", "lat": "51.5388338", "lon": "-0.1423873"}, {"address": "263 Camden High Street London NW1 7BU England", "n": 4, "link_type": "Historic Address", "node_type": "Company", "node": "14197425", "lat": "51.5388338", "lon": "-0.1423873"}, {"address": "165 Elm Drive Harrow HA2 7BZ", "n": 4, "link_type": "Officer Corresponance Address", "node_type": "Company", "node": "06876680", "lat": "51.5818569", "lon": "-0.3607263"}, {"address": "263 Camden High Street London NW1 7BU England", "n": 4, "link_type": "Historic Address", "node_type": "Company", "node": "06876680", "lat": "51.5388338", "lon": "-0.1423873"}, {"address": "263 Camden High Street 263 Camden High Street London NW1 7BU England", "n": 4, "link_type": "Officer Corresponance Address", "node_type": "Company", "node": "13164718", "lat": 51.540148, "lon": -0.143948}, {"address": "Flat A 243-245, Camden High Street London NW1 7BU United Kingdom", "n": 4, "link_type": "Officer Corresponance Address", "node_type": "Company", "node": "13164718", "lat": 51.540148, "lon": -0.143948}, {"address": "Flat A 243-245, Camden High Street London NW1 7BU United Kingdom", "n": 4, "link_type": "Person of Significant Control Address", "node_type": "Company", "node": "13164718", "lat": 51.540148, "lon": -0.143948}, {"address": "263 Camden High Street 263 Camden High Street London NW1 7BU England", "n": 4, "link_type": "Person of Significant Control Address", "node_type": "Company", "node": "13164718", "lat": 51.540148, "lon": -0.143948}, {"address": "263 Camden High Street 263 Camden High Street London NW1 7BU England", "n": 4, "link_type": "Historic Address", "node_type": "Company", "node": "13164718", "lat": 51.540148, "lon": -0.143948}, {"address": "Flat a 243-245, Camden High Street London NW1 7BU United Kingdom", "n": 4, "link_type": "Historic Address", "node_type": "Company", "node": "13164718", "lat": 51.540148, "lon": -0.143948}, {"address": "263 Camden High Street London NW1 7BU England", "n": 4, "link_type": "Officer Corresponance Address", "node_type": "Company", "node": "10690090", "lat": "51.5388338", "lon": "-0.1423873"}, {"address": "263 Camden High Street London NW1 7BU England", "n": 4, "link_type": "Person of Significant Control Address", "node_type": "Company", "node": "10690090", "lat": "51.5388338", "lon": "-0.1423873"}, {"address": "263 Camden High Street London NW1 7BU England", "n": 4, "link_type": "Historic Address", "node_type": "Company", "node": "10690090", "lat": "51.5388338", "lon": "-0.1423873"}, {"address": "263 Camden High Street London NW1 7BU England", "n": 4, "link_type": "Officer Corresponance Address", "node_type": "Company", "node": "10693956", "lat": "51.5388338", "lon": "-0.1423873"}, {"address": "263 Camden High Street London NW1 7BU England", "n": 4, "link_type": "Person of Significant Control Address", "node_type": "Company", "node": "10693956", "lat": "51.5388338", "lon": "-0.1423873"}, {"address": "263 Camden High Street London NW1 7BU England", "n": 4, "link_type": "Historic Address", "node_type": "Company", "node": "10693956", "lat": "51.5388338", "lon": "-0.1423873"}, {"address": "216 Camden High Street London NW1 8QR United Kingdom", "n": 4, "link_type": "Historic Address", "node_type": "Company", "node": "10693956", "lat": "51.540588400000004", "lon": "-0.14372336512699113"}, {"address": "23 Kingshill Avenue Harrow HA3 8JT United Kingdom", "n": 4, "link_type": "Officer Corresponance Address", "node_type": "Company", "node": "11619409", "lat": "51.5895613", "lon": "-0.313665"}, {"address": "23 Kingshill Avenue Harrow HA3 8JT United Kingdom", "n": 4, "link_type": "Person of Significant Control Address", "node_type": "Company", "node": "11619409", "lat": "51.5895613", "lon": "-0.313665"}, {"address": "263 Camden High Street London NW1 7BU England", "n": 4, "link_type": "Historic Address", "node_type": "Company", "node": "11619409", "lat": "51.5388338", "lon": "-0.1423873"}, {"address": "23 Kingshill Avenue Harrow Middlesex HA3 8JT England", "n": 4, "link_type": "Historic Address", "node_type": "Company", "node": "11619409", "lat": 51.588679, "lon": -0.312584}, {"address": "263 Camden High Street London NW1 7BU England", "n": 4, "link_type": "Officer Corresponance Address", "node_type": "Company", "node": "11805769", "lat": "51.5388338", "lon": "-0.1423873"}, {"address": "263 Camden High Street London NW1 7BU England", "n": 4, "link_type": "Person of Significant Control Address", "node_type": "Company", "node": "11805769", "lat": "51.5388338", "lon": "-0.1423873"}, {"address": "263 Camden High Street London NW1 7BU England", "n": 4, "link_type": "Historic Address", "node_type": "Company", "node": "11805769", "lat": "51.5388338", "lon": "-0.1423873"}, {"address": "39 Lillingston House 76 Hornsey Road London N7 7LX England", "n": 4, "link_type": "Historic Address", "node_type": "Company", "node": "11805769", "lat": 51.557502, "lon": -0.110765}, {"address": "Flat 33 Whitby Court Parkhurst Road Holloway London N7 0SU United Kingdom", "n": 4, "link_type": "Historic Address", "node_type": "Company", "node": "11805769", "lat": 51.554692, "lon": -0.122234}, {"address": "PO Box N7 0SU Flat 33, Whitby Court Flat 33, Whitby Court Parkhurst Road Holloway London N7 0SU England", "n": 4, "link_type": "Historic Address", "node_type": "Company", "node": "11805769", "lat": 51.554692, "lon": -0.122234}, {"address": "263 Camden High Street London NW1 7BU England", "n": 4, "link_type": "Officer Corresponance Address", "node_type": "Company", "node": "12895830", "lat": "51.5388338", "lon": "-0.1423873"}, {"address": "263 Camden High Street London NW1 7BU England", "n": 4, "link_type": "Person of Significant Control Address", "node_type": "Company", "node": "12895830", "lat": "51.5388338", "lon": "-0.1423873"}, {"address": "263 Camden High Street London NW1 7BU England", "n": 4, "link_type": "Historic Address", "node_type": "Company", "node": "12895830", "lat": "51.5388338", "lon": "-0.1423873"}, {"address": "Baloch Office 13 Greenwich SE8 3BU", "n": 4, "link_type": "Officer Corresponance Address", "node_type": "Company", "node": "10895963", "lat": 51.481585, "lon": -0.021171}, {"address": "Baloch Office 13 Greenwich SE8 3BU", "n": 4, "link_type": "Person of Significant Control Address", "node_type": "Company", "node": "10895963", "lat": 51.481585, "lon": -0.021171}, {"address": "Baloch Office 13 Greenwich SE8 3BU", "n": 4, "link_type": "Historic Address", "node_type": "Company", "node": "10895963", "lat": 51.481585, "lon": -0.021171}, {"address": "537 Oxford Street London W1C 2QP United Kingdom", "n": 4, "link_type": "Historic Address", "node_type": "Company", "node": "10895963", "lat": "51.5134189", "lon": "-0.1581613"}, {"address": "37-39 Oxford Street London W1D 2DU England", "n": 4, "link_type": "Historic Address", "node_type": "Company", "node": "14210992", "lat": "51.516188850000006", "lon": "-0.13181610640056646"}, {"address": "Kp05 Kas House Bridge Road Southall UB2 4AB England", "n": 4, "link_type": "Officer Corresponance Address", "node_type": "Company", "node": "11255857", "lat": 51.504497, "lon": -0.372668}, {"address": "14 Barnsley Street London E1 5RJ England", "n": 4, "link_type": "Officer Corresponance Address", "node_type": "Company", "node": "11255857", "lat": "51.5233077", "lon": "-0.0586075"}, {"address": "62 North Street Brighton BN1 1RH England", "n": 4, "link_type": "Officer Corresponance Address", "node_type": "Company", "node": "11255857", "lat": "50.8233636", "lon": "-0.1420975"}, {"address": "Kp05 Kas House Southall UB2 4AB England", "n": 4, "link_type": "Historic Address", "node_type": "Company", "node": "11255857", "lat": 51.504497, "lon": -0.372668}, {"address": "344-348 High Road Ilford IG1 1QP England", "n": 4, "link_type": "Historic Address", "node_type": "Company", "node": "11255857", "lat": "51.5606137", "lon": "0.0814962"}, {"address": "Office 103 344 348 Ilford IG1 1QP England", "n": 4, "link_type": "Historic Address", "node_type": "Company", "node": "11255857", "lat": 51.560745, "lon": 0.083414}, {"address": "3 Oxford Road London E15 1DD England", "n": 4, "link_type": "Historic Address", "node_type": "Company", "node": "11255857", "lat": "51.5436501", "lon": "0.0006917"}, {"address": "14 Caslon Court Barnsley Street London E1 5RJ England", "n": 4, "link_type": "Historic Address", "node_type": "Company", "node": "11255857", "lat": 51.523465, "lon": -0.058967}, {"address": "62 North Street Brighton East Sussex BN1 1RH England", "n": 4, "link_type": "Historic Address", "node_type": "Company", "node": "11255857", "lat": 50.823161, "lon": -0.142421}, {"address": "36 Boycroft Avenue Boycroft Avenue London NW9 8AP United Kingdom", "n": 4, "link_type": "Historic Address", "node_type": "Company", "node": "11255857", "lat": "51.5804398", "lon": "-0.264042"}, {"address": "Zenith Building Flat 1 Limehouse E14 7JR England", "n": 4, "link_type": "Appointment Address", "node_type": "Person", "node": "8SoJ6g7iavPIJhR4X5wlrdYvSkU", "lat": 51.512502, "lon": -0.037844}, {"address": "Zenith Building Flat 1 Limehouse E14 7JR England", "n": 4, "link_type": "Officer Corresponance Address", "node_type": "Person", "node": "8SoJ6g7iavPIJhR4X5wlrdYvSkU", "lat": 51.512502, "lon": -0.037844}, {"address": "Flat 11 596 Commercial Road London E14 7JR England", "n": 4, "link_type": "Appointment Address", "node_type": "Person", "node": "Jr7gurUa76tWjQOFiEPFq6uBXj0", "lat": 51.512502, "lon": -0.037844}, {"address": "Flat 11 596 Commercial Road London E14 7JR England", "n": 4, "link_type": "Officer Corresponance Address", "node_type": "Person", "node": "Jr7gurUa76tWjQOFiEPFq6uBXj0", "lat": 51.512502, "lon": -0.037844}, {"address": "Flat 4 598 Commercial Road London E14 7JR England", "n": 4, "link_type": "Appointment Address", "node_type": "Person", "node": "wOgmRr8ludof0w9IbMAVz5JqOiE", "lat": 51.512502, "lon": -0.037844}, {"address": "Flat 4 598 Commercial Road London E14 7JR England", "n": 4, "link_type": "Officer Corresponance Address", "node_type": "Person", "node": "wOgmRr8ludof0w9IbMAVz5JqOiE", "lat": 51.512502, "lon": -0.037844}, {"address": "104 Fir Court Acorn Walk London SE16 5DX", "n": 4, "link_type": "Appointment Address", "node_type": "Person", "node": "TgVKLbqC-_VlwVNrKJPYPBGOxq0", "lat": 51.504737, "lon": -0.03433}, {"address": "Flat 6 598 Commercial Road London E14 7JR England", "n": 4, "link_type": "Appointment Address", "node_type": "Person", "node": "TgVKLbqC-_VlwVNrKJPYPBGOxq0", "lat": 51.512502, "lon": -0.037844}, {"address": "104 Fir Court Acorn Walk London SE16 5DX", "n": 4, "link_type": "Officer Corresponance Address", "node_type": "Person", "node": "TgVKLbqC-_VlwVNrKJPYPBGOxq0", "lat": 51.504737, "lon": -0.03433}, {"address": "Flat 12 598 Commercial Road London E14 7JR England", "n": 4, "link_type": "Appointment Address", "node_type": "Person", "node": "fE0YQ8zu3voOq0rUweb_IZYlU_I", "lat": 51.512502, "lon": -0.037844}, {"address": "Flat 12 598 Commercial Road London E14 7JR England", "n": 4, "link_type": "Officer Corresponance Address", "node_type": "Person", "node": "fE0YQ8zu3voOq0rUweb_IZYlU_I", "lat": 51.512502, "lon": -0.037844}, {"address": "263 Camden High Street London NW1 7BU England", "n": 4, "link_type": "Appointment Address", "node_type": "Person", "node": "EqFx_OkL0vvpijKX4OY2gzLtpm4", "lat": "51.5388338", "lon": "-0.1423873"}, {"address": "263 Camden High Street London NW1 7BU England", "n": 4, "link_type": "Officer Corresponance Address", "node_type": "Person", "node": "EqFx_OkL0vvpijKX4OY2gzLtpm4", "lat": "51.5388338", "lon": "-0.1423873"}, {"address": "263 Camden High Street London NW1 7BU England", "n": 4, "link_type": "Appointment Address", "node_type": "Person", "node": "XqlLJWo57tcVHhxlCPnDiCwgkAM", "lat": "51.5388338", "lon": "-0.1423873"}, {"address": "263 Camden High Street London NW1 7BU England", "n": 4, "link_type": "Officer Corresponance Address", "node_type": "Person", "node": "XqlLJWo57tcVHhxlCPnDiCwgkAM", "lat": "51.5388338", "lon": "-0.1423873"}, {"address": "263 Camden High Street London NW1 7BU England", "n": 4, "link_type": "Appointment Address", "node_type": "Person", "node": "VQiuHhRKHnAcs7zw9JT6uinQv50", "lat": "51.5388338", "lon": "-0.1423873"}, {"address": "263 Camden High Street London NW1 7BU England", "n": 4, "link_type": "Officer Corresponance Address", "node_type": "Person", "node": "VQiuHhRKHnAcs7zw9JT6uinQv50", "lat": "51.5388338", "lon": "-0.1423873"}, {"address": "263 Camden High Street London NW1 7BU England", "n": 4, "link_type": "Appointment Address", "node_type": "Person", "node": "57fgSUUoNIPOwukc0XhkOdsM8KA", "lat": "51.5388338", "lon": "-0.1423873"}, {"address": "263 Camden High Street 263 Camden High Street London NW1 7BU England", "n": 4, "link_type": "Appointment Address", "node_type": "Person", "node": "57fgSUUoNIPOwukc0XhkOdsM8KA", "lat": 51.540148, "lon": -0.143948}, {"address": "263 Camden High Street London NW1 7BU England", "n": 4, "link_type": "Officer Corresponance Address", "node_type": "Person", "node": "57fgSUUoNIPOwukc0XhkOdsM8KA", "lat": "51.5388338", "lon": "-0.1423873"}, {"address": "Flat 4 Blueberry Court 237 Hale Lane Edgware HA8 9QZ England", "n": 4, "link_type": "Appointment Address", "node_type": "Person", "node": "an8T5LURgRvEKGU1HiDWWMxOD7Q", "lat": 51.617902, "lon": -0.268035}, {"address": "263 Camden High Street London NW1 7BU England", "n": 4, "link_type": "Appointment Address", "node_type": "Person", "node": "an8T5LURgRvEKGU1HiDWWMxOD7Q", "lat": "51.5388338", "lon": "-0.1423873"}, {"address": "Flat 4 Blueberry Court 237 Hale Lane Edgware HA8 9QZ England", "n": 4, "link_type": "Officer Corresponance Address", "node_type": "Person", "node": "an8T5LURgRvEKGU1HiDWWMxOD7Q", "lat": 51.617902, "lon": -0.268035}, {"address": "263 Camden High Street London NW1 7BU England", "n": 4, "link_type": "Appointment Address", "node_type": "Person", "node": "D1ctV2Ig6Mu-_B8Tqul9JOBPZ3g", "lat": "51.5388338", "lon": "-0.1423873"}, {"address": "263 Camden High Street London NW1 7BU England", "n": 4, "link_type": "Officer Corresponance Address", "node_type": "Person", "node": "D1ctV2Ig6Mu-_B8Tqul9JOBPZ3g", "lat": "51.5388338", "lon": "-0.1423873"}, {"address": "263 Camden High Street London NW1 7BU England", "n": 4, "link_type": "Appointment Address", "node_type": "Person", "node": "n4xVHtLFosvy2Xtdsbi74Sb1GCY", "lat": "51.5388338", "lon": "-0.1423873"}, {"address": "263 Camden High Street London NW1 7BU England", "n": 4, "link_type": "Officer Corresponance Address", "node_type": "Person", "node": "n4xVHtLFosvy2Xtdsbi74Sb1GCY", "lat": "51.5388338", "lon": "-0.1423873"}, {"address": "263 Camden High Street London NW1 7BU England", "n": 4, "link_type": "Appointment Address", "node_type": "Person", "node": "4JcQQAr2ut1zXiel1XgvOa2myHA", "lat": "51.5388338", "lon": "-0.1423873"}, {"address": "263 Camden High Street London NW1 7BU England", "n": 4, "link_type": "Officer Corresponance Address", "node_type": "Person", "node": "4JcQQAr2ut1zXiel1XgvOa2myHA", "lat": "51.5388338", "lon": "-0.1423873"}, {"address": "263 Camden High Street London NW1 7BU England", "n": 4, "link_type": "Appointment Address", "node_type": "Person", "node": "nz_rFDCdYdKUCUGLxB32J1LzdUY", "lat": "51.5388338", "lon": "-0.1423873"}, {"address": "263 Camden High Street London NW1 7BU England", "n": 4, "link_type": "Officer Corresponance Address", "node_type": "Person", "node": "nz_rFDCdYdKUCUGLxB32J1LzdUY", "lat": "51.5388338", "lon": "-0.1423873"}, {"address": "263 Camden High Street London NW1 7BU England", "n": 4, "link_type": "Appointment Address", "node_type": "Person", "node": "LafPRlDRdP-BMbC0lCjuJXc-4Hg", "lat": "51.5388338", "lon": "-0.1423873"}, {"address": "263 Camden High Street London NW1 7BU England", "n": 4, "link_type": "Officer Corresponance Address", "node_type": "Person", "node": "LafPRlDRdP-BMbC0lCjuJXc-4Hg", "lat": "51.5388338", "lon": "-0.1423873"}, {"address": "263 Camden High Camden High Street London NW1 7BU England", "n": 4, "link_type": "Appointment Address", "node_type": "Person", "node": "8Hj4IuKukwjqkbobft_IPW93uLk", "lat": 51.540148, "lon": -0.143948}, {"address": "263 Camden High Camden High Street London NW1 7BU England", "n": 4, "link_type": "Officer Corresponance Address", "node_type": "Person", "node": "8Hj4IuKukwjqkbobft_IPW93uLk", "lat": 51.540148, "lon": -0.143948}, {"address": "267-269 Oxford Street London W1D 2DG United Kingdom", "n": 4, "link_type": "Appointment Address", "node_type": "Person", "node": "a86hSSTAgLGcnUUZNaAY_sfLH9U", "lat": 51.516278, "lon": -0.130722}, {"address": "37-39 Oxford Street London W1D 2DU England", "n": 4, "link_type": "Appointment Address", "node_type": "Person", "node": "a86hSSTAgLGcnUUZNaAY_sfLH9U", "lat": "51.516188850000006", "lon": "-0.13181610640056646"}, {"address": "Flat 7 Commercial Road London E14 7JR England", "n": 4, "link_type": "Appointment Address", "node_type": "Person", "node": "a86hSSTAgLGcnUUZNaAY_sfLH9U", "lat": 51.512502, "lon": -0.037844}, {"address": "1st Floor 47 Bury New Road Manchester M25 9JY England", "n": 4, "link_type": "Appointment Address", "node_type": "Person", "node": "D8d5OsyoPGBCST_f_-_u5yvFOjw", "lat": 53.519301, "lon": -2.27237}, {"address": "23 Alliance Close Hounslow TW4 5AT United Kingdom", "n": 4, "link_type": "Appointment Address", "node_type": "Person", "node": "PspGYPADpIwRUFNsO2_9jqymfQA", "lat": "51.4600779", "lon": "-0.3813192"}, {"address": "Allen House 1 Westmead Road Sutton SM1 4LA", "n": 4, "link_type": "Appointment Address", "node_type": "Person", "node": "PspGYPADpIwRUFNsO2_9jqymfQA", "lat": "51.36598655", "lon": "-0.17183860004595786"}, {"address": "Heskin Hall Farm Wood Lane Heskin PR7 5PA", "n": 4, "link_type": "Appointment Address", "node_type": "Person", "node": "PspGYPADpIwRUFNsO2_9jqymfQA", "lat": 53.636187, "lon": -2.71439}, {"address": "23 Alliance Close Hounslow TW4 5AT", "n": 4, "link_type": "Appointment Address", "node_type": "Person", "node": "PspGYPADpIwRUFNsO2_9jqymfQA", "lat": "51.4600779", "lon": "-0.3813192"}, {"address": "23 Alliance Close Hounslow TW4 5AT United Kingdom", "n": 4, "link_type": "Officer Corresponance Address", "node_type": "Person", "node": "PspGYPADpIwRUFNsO2_9jqymfQA", "lat": "51.4600779", "lon": "-0.3813192"}, {"address": "Allen House 1 Westmead Road Sutton SM1 4LA", "n": 4, "link_type": "Appointment Address", "node_type": "Person", "node": "QTiK40D-ni6X_3_LL4-7XolOBNM", "lat": "51.36598655", "lon": "-0.17183860004595786"}, {"address": "7 The Spot Derby DE1 2JA United Kingdom", "n": 4, "link_type": "Appointment Address", "node_type": "Person", "node": "QTiK40D-ni6X_3_LL4-7XolOBNM", "lat": "52.91919885", "lon": "-1.4748446658726628"}, {"address": "Heskin Hall Farm Wood Lane Heskin PR7 5PA", "n": 4, "link_type": "Appointment Address", "node_type": "Person", "node": "QTiK40D-ni6X_3_LL4-7XolOBNM", "lat": 53.636187, "lon": -2.71439}, {"address": "18 Silver Close London SE14 6DF", "n": 4, "link_type": "Appointment Address", "node_type": "Person", "node": "QTiK40D-ni6X_3_LL4-7XolOBNM", "lat": "51.4779785", "lon": "-0.0407949"}, {"address": "18 Silver Close New Cross SE14 6DF", "n": 4, "link_type": "Appointment Address", "node_type": "Person", "node": "QTiK40D-ni6X_3_LL4-7XolOBNM", "lat": "51.4779785", "lon": "-0.0407949"}, {"address": "Allen House 1 Westmead Road Sutton SM1 4LA", "n": 4, "link_type": "Officer Corresponance Address", "node_type": "Person", "node": "QTiK40D-ni6X_3_LL4-7XolOBNM", "lat": "51.36598655", "lon": "-0.17183860004595786"}, {"address": "38 Burgate Mercery Lane Canterbury CT1 2JJ United Kingdom", "n": 4, "link_type": "Appointment Address", "node_type": "Person", "node": "ziA4fGR-Y6H17ZHQ4Qibx--nSsA", "lat": 51.278892, "lon": 1.080854}, {"address": "49 Greenwich Church Street London SE10 9BL", "n": 4, "link_type": "Appointment Address", "node_type": "Person", "node": "ziA4fGR-Y6H17ZHQ4Qibx--nSsA", "lat": "51.48172085", "lon": "-0.010355596818500564"}, {"address": "8 Calderon Road London E11 4EU England", "n": 4, "link_type": "Appointment Address", "node_type": "Person", "node": "0zU5l2VOJ7dJyl9gLjG0WJh_n6g", "lat": "51.555352049999996", "lon": "-0.004694024107848309"}, {"address": "8 Calderon Road London E11 4EU England", "n": 4, "link_type": "Officer Corresponance Address", "node_type": "Person", "node": "0zU5l2VOJ7dJyl9gLjG0WJh_n6g", "lat": "51.555352049999996", "lon": "-0.004694024107848309"}, {"address": "7 & 8 Kings Parade Cambridge CB2 1SJ", "n": 4, "link_type": "Appointment Address", "node_type": "Person", "node": "gTgoW1tt0qc4GXMR9sJcjDblR0Q", "lat": "52.3260672", "lon": "0.3439695371519712"}, {"address": "21a Buckingham Palace Road London SW1W 0PP England", "n": 4, "link_type": "Appointment Address", "node_type": "Person", "node": "gTgoW1tt0qc4GXMR9sJcjDblR0Q", "lat": "51.4987349", "lon": "-0.1432479"}, {"address": "40 Countess House 10 Park Street London SW6 2QF United Kingdom", "n": 4, "link_type": "Appointment Address", "node_type": "Person", "node": "wo9uhgQWnvFhm1cjeZrfCUir2T4", "lat": 51.475523, "lon": -0.184504}, {"address": "40 Countess House 10 Park Street London SW6 2QF United Kingdom", "n": 4, "link_type": "Officer Corresponance Address", "node_type": "Person", "node": "wo9uhgQWnvFhm1cjeZrfCUir2T4", "lat": 51.475523, "lon": -0.184504}, {"address": "23 Chester Road Ilford IG3 8PT United Kingdom", "n": 4, "link_type": "Appointment Address", "node_type": "Person", "node": "vhvt0aJzH9-IfOKRjVNr7Ny_rYw", "lat": "51.5678246", "lon": "0.1025403"}, {"address": "263-265 Oxford Street London W1C 2DF England", "n": 4, "link_type": "Appointment Address", "node_type": "Person", "node": "vhvt0aJzH9-IfOKRjVNr7Ny_rYw", "lat": "51.5150189", "lon": "-0.1429588"}, {"address": "23 Chester Road Ilford IG3 8PT United Kingdom", "n": 4, "link_type": "Officer Corresponance Address", "node_type": "Person", "node": "vhvt0aJzH9-IfOKRjVNr7Ny_rYw", "lat": "51.5678246", "lon": "0.1025403"}, {"address": "Flat 32 Canterbury House London SE1 7LN United Kingdom", "n": 4, "link_type": "Appointment Address", "node_type": "Person", "node": "lQFzyv586Z_GTMKjEsYaXSLr87A", "lat": 51.498801, "lon": -0.115384}, {"address": "Kp05 Kas House Bridge Road Southall UB2 4AB England", "n": 4, "link_type": "Appointment Address", "node_type": "Person", "node": "lQFzyv586Z_GTMKjEsYaXSLr87A", "lat": 51.504497, "lon": -0.372668}, {"address": "Flat 32 Canterbury House London SE1 7LN United Kingdom", "n": 4, "link_type": "Officer Corresponance Address", "node_type": "Person", "node": "lQFzyv586Z_GTMKjEsYaXSLr87A", "lat": 51.498801, "lon": -0.115384}, {"address": "Office 103 344-348 High Road Ilford IG1 1QP England", "n": 4, "link_type": "Appointment Address", "node_type": "Person", "node": "RLw0Y0lLvY0LibkxhfMWYVrrFGI", "lat": 51.560745, "lon": 0.083414}, {"address": "Office 103 344-348 High Road Ilford IG1 1QP England", "n": 4, "link_type": "Officer Corresponance Address", "node_type": "Person", "node": "RLw0Y0lLvY0LibkxhfMWYVrrFGI", "lat": 51.560745, "lon": 0.083414}, {"address": "12 Hereford Drive Manchester M25 0JA United Kingdom", "n": 5, "link_type": "Officer Corresponance Address", "node_type": "Company", "node": "08502346", "lat": "53.5225329", "lon": "-2.2679569"}, {"address": "1st Floor Manchester M25 9JY United Kingdom", "n": 5, "link_type": "Officer Corresponance Address", "node_type": "Company", "node": "08502346", "lat": "53.4790669", "lon": "-2.2403062"}, {"address": "C/O the Chartwell Partnership Ltd 47 Bury New Road Prestwich Manchester M25 9JY", "n": 5, "link_type": "Historic Address", "node_type": "Company", "node": "08502346", "lat": 53.519301, "lon": -2.27237}, {"address": ", 1st Floor, 47 Bury New Road Prestwich, Manchester, M25 9JY", "n": 5, "link_type": "Historic Address", "node_type": "Company", "node": "08502346", "lat": 53.519301, "lon": -2.27237}, {"address": "34 Villiers Street London London WC2N 6NJ England", "n": 5, "link_type": "Officer Corresponance Address", "node_type": "Company", "node": "14411218", "lat": "51.507604", "lon": "-0.123203"}, {"address": "34 Villiers Street London London WC2N 6NJ England", "n": 5, "link_type": "Person of Significant Control Address", "node_type": "Company", "node": "14411218", "lat": "51.507604", "lon": "-0.123203"}, {"address": "34 Villiers Street London London WC2N 6NJ England", "n": 5, "link_type": "Historic Address", "node_type": "Company", "node": "14411218", "lat": "51.507604", "lon": "-0.123203"}, {"address": "C/O Tax Experts London 100 Palmerston Road London E17 6PZ United Kingdom", "n": 5, "link_type": "Officer Corresponance Address", "node_type": "Company", "node": "12359082", "lat": 51.586387, "lon": -0.029223}, {"address": "C/O Tax Experts London 100 Palmerston Road London E17 6PZ United Kingdom", "n": 5, "link_type": "Person of Significant Control Address", "node_type": "Company", "node": "12359082", "lat": 51.586387, "lon": -0.029223}, {"address": "C/O Tax Experts London 100 Palmerston Road London E17 6PZ United Kingdom", "n": 5, "link_type": "Historic Address", "node_type": "Company", "node": "12359082", "lat": 51.586387, "lon": -0.029223}, {"address": "34 Villiers Street Villiers Street London WC2N 6NJ England", "n": 5, "link_type": "Officer Corresponance Address", "node_type": "Company", "node": "13488310", "lat": "51.507604", "lon": "-0.123203"}, {"address": "34 Villiers Street Villiers Street London WC2N 6NJ England", "n": 5, "link_type": "Person of Significant Control Address", "node_type": "Company", "node": "13488310", "lat": "51.507604", "lon": "-0.123203"}, {"address": "34 Villiers Street Villiers Street London WC2N 6NJ England", "n": 5, "link_type": "Historic Address", "node_type": "Company", "node": "13488310", "lat": "51.507604", "lon": "-0.123203"}, {"address": "11a Charing Cross Road London WC2H 0EP United Kingdom", "n": 5, "link_type": "Historic Address", "node_type": "Company", "node": "13488310", "lat": "51.50991515", "lon": "-0.1282518637608535"}, {"address": "211a Kentish Town Road London NW5 2JU United Kingdom", "n": 5, "link_type": "Officer Corresponance Address", "node_type": "Company", "node": "08425393", "lat": "51.5473091", "lon": "-0.1415537"}, {"address": "141 Franciscan Rd London SW17 8DS United Kingdom", "n": 5, "link_type": "Historic Address", "node_type": "Company", "node": "08425393", "lat": "51.4292721", "lon": "-0.1583003"}, {"address": "141 Franciscan Rd London SW17 8DS United Kingdom", "n": 5, "link_type": "Officer Corresponance Address", "node_type": "Company", "node": "07847046", "lat": "51.4292721", "lon": "-0.1583003"}, {"address": "141 Franciscan Rd London SW17 8DS United Kingdom", "n": 5, "link_type": "Historic Address", "node_type": "Company", "node": "07847046", "lat": "51.4292721", "lon": "-0.1583003"}, {"address": "39a Leicester Road Manchester M7 4AS England", "n": 5, "link_type": "Officer Corresponance Address", "node_type": "Company", "node": "07231293", "lat": "53.5101553", "lon": "-2.2529627"}, {"address": "141 Franciscan Rd London SW17 8DS United Kingdom", "n": 5, "link_type": "Historic Address", "node_type": "Company", "node": "07231293", "lat": "51.4292721", "lon": "-0.1583003"}, {"address": "25 The Avenue London NW6 7NR United Kingdom", "n": 5, "link_type": "Officer Corresponance Address", "node_type": "Company", "node": "07595807", "lat": "51.541051550000006", "lon": "-0.211663808998856"}, {"address": "141 Franciscan Rd London SW17 8DS United Kingdom", "n": 5, "link_type": "Historic Address", "node_type": "Company", "node": "07595807", "lat": "51.4292721", "lon": "-0.1583003"}, {"address": "47 Westway London W12 0PT United Kingdom", "n": 5, "link_type": "Officer Corresponance Address", "node_type": "Company", "node": "07596705", "lat": "51.5142513", "lon": "-0.2464756"}, {"address": "141 Franciscan Rd London SW17 8DS United Kingdom", "n": 5, "link_type": "Historic Address", "node_type": "Company", "node": "07596705", "lat": "51.4292721", "lon": "-0.1583003"}, {"address": "141 Franciscan Rd London SW17 8DS United Kingdom", "n": 5, "link_type": "Officer Corresponance Address", "node_type": "Company", "node": "07238913", "lat": "51.4292721", "lon": "-0.1583003"}, {"address": "39a Leicester Road Manchester M7 4AS England", "n": 5, "link_type": "Officer Corresponance Address", "node_type": "Company", "node": "07238913", "lat": "53.5101553", "lon": "-2.2529627"}, {"address": "141 Franciscan Rd London SW17 8DS United Kingdom", "n": 5, "link_type": "Historic Address", "node_type": "Company", "node": "07238913", "lat": "51.4292721", "lon": "-0.1583003"}, {"address": "5-6 14 Coventry Street London W1D 6BW England", "n": 5, "link_type": "Officer Corresponance Address", "node_type": "Company", "node": "10340242", "lat": 51.510481, "lon": -0.132123}, {"address": "5-6 14 Coventry Street London W1D 6BW England", "n": 5, "link_type": "Person of Significant Control Address", "node_type": "Company", "node": "10340242", "lat": 51.510481, "lon": -0.132123}, {"address": "5-6 14 Coventry Street London W1D 6BW England", "n": 5, "link_type": "Historic Address", "node_type": "Company", "node": "10340242", "lat": 51.510481, "lon": -0.132123}, {"address": "Unit 5-7 Trocadero Centre Coventry Street London W1D 7DH United Kingdom", "n": 5, "link_type": "Historic Address", "node_type": "Company", "node": "10340242", "lat": 51.510449, "lon": -0.132849}, {"address": "Flat 3 Adam & Eve Court 142-144 Oxford Street London W1D 1LZ England", "n": 5, "link_type": "Officer Corresponance Address", "node_type": "Company", "node": "07379334", "lat": 51.515962, "lon": -0.137549}, {"address": "Flat 3 Adam & Eve Court London W1D 1LZ England", "n": 5, "link_type": "Historic Address", "node_type": "Company", "node": "07379334", "lat": 51.515962, "lon": -0.137549}, {"address": "Flat 1 142-144 Oxford Street London W1D 1LZ England", "n": 5, "link_type": "Officer Corresponance Address", "node_type": "Company", "node": "13640427", "lat": 51.515962, "lon": -0.137549}, {"address": "Flat 1 142-144 Oxford Street London W1D 1LZ England", "n": 5, "link_type": "Person of Significant Control Address", "node_type": "Company", "node": "13640427", "lat": 51.515962, "lon": -0.137549}, {"address": "Flat 1 142-144 Oxford Street London W1D 1LZ England", "n": 5, "link_type": "Historic Address", "node_type": "Company", "node": "13640427", "lat": 51.515962, "lon": -0.137549}, {"address": "146-148 Oxford Street London W1D 1NB United Kingdom", "n": 5, "link_type": "Officer Corresponance Address", "node_type": "Company", "node": "12415826", "lat": "51.5155587", "lon": "-0.1398676"}, {"address": "146-148 Oxford Street London W1D 1NB United Kingdom", "n": 5, "link_type": "Person of Significant Control Address", "node_type": "Company", "node": "12415826", "lat": "51.5155587", "lon": "-0.1398676"}, {"address": "Unit 9105 141 Access House Morden Road Mitcham CR4 4DG England", "n": 5, "link_type": "Officer Corresponance Address", "node_type": "Company", "node": "10734212", "lat": 51.398875, "lon": -0.179115}, {"address": "Unit 9105 141 Access House Morden Road Mitcham CR4 4DG England", "n": 5, "link_type": "Person of Significant Control Address", "node_type": "Company", "node": "10734212", "lat": 51.398875, "lon": -0.179115}, {"address": "146-248 Oxford Street London W1D 1NB England", "n": 5, "link_type": "Historic Address", "node_type": "Company", "node": "10734212", "lat": 51.515948, "lon": -0.137654}, {"address": "Unit 9105 141 Access House Morden Road Mitcham CR4 4DG England", "n": 5, "link_type": "Historic Address", "node_type": "Company", "node": "10734212", "lat": 51.398875, "lon": -0.179115}, {"address": "14 Lambton Road London SW20 0LR England", "n": 5, "link_type": "Officer Corresponance Address", "node_type": "Company", "node": "11843228", "lat": "51.4100994", "lon": "-0.2299078"}, {"address": "14 Lambton Road London SW20 0LR England", "n": 5, "link_type": "Person of Significant Control Address", "node_type": "Company", "node": "11843228", "lat": "51.4100994", "lon": "-0.2299078"}, {"address": "14 Lambton Road Raynes Road London SW20 0LR England", "n": 5, "link_type": "Historic Address", "node_type": "Company", "node": "11843228", "lat": 51.409985, "lon": -0.229817}, {"address": "20-22 Wenlock Road London N1 7GU England", "n": 5, "link_type": "Officer Corresponance Address", "node_type": "Company", "node": "13865359", "lat": "51.5307915", "lon": "-0.0936842"}, {"address": "20-22 Wenlock Road London N1 7GU England", "n": 5, "link_type": "Person of Significant Control Address", "node_type": "Company", "node": "13865359", "lat": "51.5307915", "lon": "-0.0936842"}, {"address": "20-22 Wenlock Road London N1 7GU England", "n": 5, "link_type": "Historic Address", "node_type": "Company", "node": "13865359", "lat": "51.5307915", "lon": "-0.0936842"}, {"address": "3 Troon Street London E1 0NT United Kingdom", "n": 5, "link_type": "Historic Address", "node_type": "Company", "node": "12581526", "lat": "51.514917499999996", "lon": "-0.04115925165235494"}, {"address": "55 Catherine Place London SW1E 6DY", "n": 5, "link_type": "Officer Corresponance Address", "node_type": "Company", "node": "05834508", "lat": "51.4990929", "lon": "-0.1401781"}, {"address": "55 Catherine Place SW1E 6DY", "n": 5, "link_type": "Historic Address", "node_type": "Company", "node": "05834508", "lat": "51.4990929", "lon": "-0.1401781"}, {"address": "1492 Happy Valley Road Greta Valley 7387 New Zealand", "n": 5, "link_type": "Officer Corresponance Address", "node_type": "Company", "node": "05504578", "lat": "", "lon": ""}, {"address": "Castlewood House 77-91 New Oxford Street London WC1A 1DG", "n": 5, "link_type": "Officer Corresponance Address", "node_type": "Company", "node": "05504578", "lat": 51.516603, "lon": -0.127956}, {"address": "Ground Floor Broadway House London SW6 1AA", "n": 5, "link_type": "Officer Corresponance Address", "node_type": "Company", "node": "05504578", "lat": 51.480062, "lon": -0.196579}, {"address": "Flat 6, 598 Commercial Road London E14 7JR", "n": 5, "link_type": "Historic Address", "node_type": "Company", "node": "05504578", "lat": 51.512502, "lon": -0.037844}, {"address": "104 Acorn Walk Rotherhithe London SE16 5DX", "n": 5, "link_type": "Historic Address", "node_type": "Company", "node": "05504578", "lat": "51.5044854", "lon": "-0.0344267"}, {"address": "", "n": 5, "link_type": "Historic Address", "node_type": "Company", "node": "05504578", "lat": "", "lon": ""}, {"address": "44a Goodhart Place Goodhart Place London E14 8EG England", "n": 5, "link_type": "Historic Address", "node_type": "Company", "node": "11669728", "lat": "51.5101205", "lon": "-0.0373266"}, {"address": "Liberty House Edgware HA8 6LE England", "n": 5, "link_type": "Historic Address", "node_type": "Company", "node": "13215946", "lat": 51.610155, "lon": -0.279942}, {"address": "16 Chilton Grove London SE8 5DY England", "n": 5, "link_type": "Officer Corresponance Address", "node_type": "Company", "node": "12015607", "lat": "51.4914752", "lon": "-0.041941"}, {"address": "142-144 Oxford Street London W1D 1LZ England", "n": 5, "link_type": "Officer Corresponance Address", "node_type": "Company", "node": "12015607", "lat": "51.5158928", "lon": "-0.1374583"}, {"address": "187 Royal College Street London NW1 9NN England", "n": 5, "link_type": "Person of Significant Control Address", "node_type": "Company", "node": "12015607", "lat": "51.5427572", "lon": "-0.1391444"}, {"address": "142-144 Oxford Street London W1D 1LZ England", "n": 5, "link_type": "Person of Significant Control Address", "node_type": "Company", "node": "12015607", "lat": "51.5158928", "lon": "-0.1374583"}, {"address": "187 Royal College Street London NW1 9NN England", "n": 5, "link_type": "Historic Address", "node_type": "Company", "node": "12015607", "lat": "51.5427572", "lon": "-0.1391444"}, {"address": "142-144 Oxford Street London W1D 1LZ England", "n": 5, "link_type": "Historic Address", "node_type": "Company", "node": "12015607", "lat": "51.5158928", "lon": "-0.1374583"}, {"address": "Flat8 Carnarvon Road London E15 4JW England", "n": 5, "link_type": "Officer Corresponance Address", "node_type": "Company", "node": "11478177", "lat": 51.545457, "lon": 0.011715}, {"address": "20-22 Wenlock Road London N1 7GU England", "n": 5, "link_type": "Officer Corresponance Address", "node_type": "Company", "node": "11478177", "lat": "51.5307915", "lon": "-0.0936842"}, {"address": "Flat 1 Cedar House Cedar Tree Grove London SE27 0QD England", "n": 5, "link_type": "Officer Corresponance Address", "node_type": "Company", "node": "11478177", "lat": 51.424722, "lon": -0.106034}, {"address": "Flat 1 Cedar House Cedar Tree Grove London SE27 0QD England", "n": 5, "link_type": "Person of Significant Control Address", "node_type": "Company", "node": "11478177", "lat": 51.424722, "lon": -0.106034}, {"address": "20-22 Wenlock Road London N1 7GU England", "n": 5, "link_type": "Person of Significant Control Address", "node_type": "Company", "node": "11478177", "lat": "51.5307915", "lon": "-0.0936842"}, {"address": "Flat 1 Cedar House Cedar Tree Grove London SE27 0QD England", "n": 5, "link_type": "Historic Address", "node_type": "Company", "node": "11478177", "lat": 51.424722, "lon": -0.106034}, {"address": "Flat 8 Carnarvon Road London E15 4JW England", "n": 5, "link_type": "Historic Address", "node_type": "Company", "node": "11478177", "lat": 51.545457, "lon": 0.011715}, {"address": "20-22 Wenlock Road London N1 7GU England", "n": 5, "link_type": "Historic Address", "node_type": "Company", "node": "11478177", "lat": "51.5307915", "lon": "-0.0936842"}, {"address": "37 Oxford Street London W1D 2DU England", "n": 5, "link_type": "Officer Corresponance Address", "node_type": "Company", "node": "11647876", "lat": "51.516188850000006", "lon": "-0.13181610640056646"}, {"address": "37 Oxford Street London W1D 2DU England", "n": 5, "link_type": "Person of Significant Control Address", "node_type": "Company", "node": "11647876", "lat": "51.516188850000006", "lon": "-0.13181610640056646"}, {"address": "37 Oxford Street London W1D 2DU England", "n": 5, "link_type": "Historic Address", "node_type": "Company", "node": "11647876", "lat": "51.516188850000006", "lon": "-0.13181610640056646"}, {"address": "Baloch Office 2.1 133 Creek Road Greenwich London SE8 3BU England", "n": 5, "link_type": "Historic Address", "node_type": "Company", "node": "11647876", "lat": 51.481585, "lon": -0.021171}, {"address": "37 Oxford Street London W1D 2DU United Kingdom", "n": 5, "link_type": "Historic Address", "node_type": "Company", "node": "11647876", "lat": "51.516188850000006", "lon": "-0.13181610640056646"}, {"address": "40 Talwin Street London E3 3JB England", "n": 5, "link_type": "Officer Corresponance Address", "node_type": "Company", "node": "10782536", "lat": "51.5252971", "lon": "-0.0142646"}, {"address": "Office 103 - 344-348 High Road Ilford IG1 1QP England", "n": 5, "link_type": "Officer Corresponance Address", "node_type": "Company", "node": "10782536", "lat": 51.560745, "lon": 0.083414}, {"address": "40 Talwin Street London E3 3JB England", "n": 5, "link_type": "Person of Significant Control Address", "node_type": "Company", "node": "10782536", "lat": "51.5252971", "lon": "-0.0142646"}, {"address": "40 Talwin Street London E3 3JB England", "n": 5, "link_type": "Historic Address", "node_type": "Company", "node": "10782536", "lat": "51.5252971", "lon": "-0.0142646"}, {"address": "67B Windsor Road London E7 0QY United Kingdom", "n": 5, "link_type": "Historic Address", "node_type": "Company", "node": "10782536", "lat": "51.548096", "lon": "0.0327435"}, {"address": "Office 103 - 344-348 High Road Ilford IG1 1QP England", "n": 5, "link_type": "Historic Address", "node_type": "Company", "node": "10782536", "lat": 51.560745, "lon": 0.083414}, {"address": "37-39 Oxford Street London W1D 2DU", "n": 5, "link_type": "Historic Address", "node_type": "Company", "node": "10782536", "lat": "51.516188850000006", "lon": "-0.13181610640056646"}, {"address": "Flat 62 , 25 Greese Street Oxford Street London W1D 2DU United Kingdom", "n": 5, "link_type": "Historic Address", "node_type": "Company", "node": "10782536", "lat": 51.516178, "lon": -0.131904}, {"address": "16 Heronsgate Trading Estate Basildon SS14 3EU", "n": 5, "link_type": "Officer Corresponance Address", "node_type": "Company", "node": "07449755", "lat": 51.589837, "lon": 0.495095}, {"address": "16 Heronsgate Trading Estate Basildon SS14 3EU United Kingdom", "n": 5, "link_type": "Officer Corresponance Address", "node_type": "Company", "node": "07449755", "lat": 51.589837, "lon": 0.495095}, {"address": "70 Highlands Road Basildon SS13 2JA", "n": 5, "link_type": "Officer Corresponance Address", "node_type": "Company", "node": "07449755", "lat": "51.5707637", "lon": "0.5335993"}, {"address": "16 Heronsgate Trading Estate Basildon SS14 3EU", "n": 5, "link_type": "Person of Significant Control Address", "node_type": "Company", "node": "07449755", "lat": 51.589837, "lon": 0.495095}, {"address": "16 Heronsgate Trading Estate Basildon SS14 3EU", "n": 5, "link_type": "Historic Address", "node_type": "Company", "node": "07449755", "lat": 51.589837, "lon": 0.495095}, {"address": "44 Barrenger Road London N10 1JA United Kingdom", "n": 5, "link_type": "Officer Corresponance Address", "node_type": "Company", "node": "07412675", "lat": "51.598600149999996", "lon": "-0.15651489999999868"}, {"address": "84 High St London NW10 4SJ United Kingdom", "n": 5, "link_type": "Historic Address", "node_type": "Company", "node": "07412675", "lat": "51.6534067", "lon": "-0.2007979"}, {"address": "18 Chapel Street Huntingdon PE28 4DY", "n": 5, "link_type": "Officer Corresponance Address", "node_type": "Company", "node": "07493025", "lat": 52.369328, "lon": -0.259446}, {"address": "18 Chapel Street Huntingdon PE28 4DY", "n": 5, "link_type": "Person of Significant Control Address", "node_type": "Company", "node": "07493025", "lat": 52.369328, "lon": -0.259446}, {"address": "18 Chapel Street Huntingdon PE28 4DY", "n": 5, "link_type": "Historic Address", "node_type": "Company", "node": "07493025", "lat": 52.369328, "lon": -0.259446}, {"address": " 34 Thorpedene Ave Hullbridge Essex SS5 6JA United Kingdom", "n": 5, "link_type": "Historic Address", "node_type": "Company", "node": "07493025", "lat": "51.6220365", "lon": "0.6153339"}, {"address": "118 George Street Hull HU1 3AA England", "n": 5, "link_type": "Officer Corresponance Address", "node_type": "Company", "node": "07521721", "lat": "53.7473553", "lon": "-0.3328931"}, {"address": "573 Holderness Road Hull HU8 9AA", "n": 5, "link_type": "Historic Address", "node_type": "Company", "node": "07521721", "lat": "53.7626669", "lon": "-0.2977673"}, {"address": " First Floor 43 Grimsby Road Cleethorpes North East Lincolnshire DN35 7AQ United Kingdom", "n": 5, "link_type": "Historic Address", "node_type": "Company", "node": "07521721", "lat": 53.571309, "lon": -0.055123}, {"address": "Companies House Default Address Cardiff CF14 8LR Wales", "n": 5, "link_type": "Officer Corresponance Address", "node_type": "Company", "node": "07487539", "lat": 51.522153, "lon": -3.194287}, {"address": "13 Midland Road, Olney Midland Road Olney MK46 4BL England", "n": 5, "link_type": "Officer Corresponance Address", "node_type": "Company", "node": "07487539", "lat": 52.159472, "lon": -0.701076}, {"address": "Prospect House Suite1 Leigh WN7 1AZ", "n": 5, "link_type": "Officer Corresponance Address", "node_type": "Company", "node": "07487539", "lat": 53.497724, "lon": -2.513845}, {"address": "Suite 527 2 Old Brompton Road London SW7 3DQ United Kingdom", "n": 5, "link_type": "Officer Corresponance Address", "node_type": "Company", "node": "07487539", "lat": 51.494005, "lon": -0.174905}, {"address": "13 Midland Road, Olney Midland Road Olney MK46 4BL England", "n": 5, "link_type": "Person of Significant Control Address", "node_type": "Company", "node": "07487539", "lat": 52.159472, "lon": -0.701076}, {"address": "Companies House Cardiff CF14 8LR Wales", "n": 5, "link_type": "Historic Address", "node_type": "Company", "node": "07487539", "lat": "51.49953625", "lon": "-3.1892982480627765"}, {"address": ", 13 Midland Road, Olney Midland Road, Olney, MK46 4BL, England", "n": 5, "link_type": "Historic Address", "node_type": "Company", "node": "07487539", "lat": 52.159472, "lon": -0.701076}, {"address": ", C/O C/O Celtic Transport Limited, Prospect House Suite1, 52 Church Street, Leigh, Lancashire, WN7 1AZ", "n": 5, "link_type": "Historic Address", "node_type": "Company", "node": "07487539", "lat": 53.497724, "lon": -2.513845}, {"address": ", 13 Davy Road, Runcorn, Cheshire, WA7 1PZ", "n": 5, "link_type": "Historic Address", "node_type": "Company", "node": "07487539", "lat": 53.342215, "lon": -2.705068}, {"address": ", Suite 527 2 Old Brompton Road, London, SW7 3DQ", "n": 5, "link_type": "Historic Address", "node_type": "Company", "node": "07487539", "lat": 51.494005, "lon": -0.174905}, {"address": "651a Mauldeth Road West Manchester M21 7SA", "n": 5, "link_type": "Officer Corresponance Address", "node_type": "Company", "node": "07538673", "lat": "53.4333095", "lon": "-2.2677864"}, {"address": "651a Mauldeth Road West Manchester M21 7SA United Kingdom", "n": 5, "link_type": "Officer Corresponance Address", "node_type": "Company", "node": "07538673", "lat": "53.4333095", "lon": "-2.2677864"}, {"address": "651a Mauldeth Road West Manchester M21 7SA", "n": 5, "link_type": "Person of Significant Control Address", "node_type": "Company", "node": "07538673", "lat": "53.4333095", "lon": "-2.2677864"}, {"address": "651a Mauldeth Road West Manchester M21 7SA", "n": 5, "link_type": "Historic Address", "node_type": "Company", "node": "07538673", "lat": "53.4333095", "lon": "-2.2677864"}, {"address": "15 The Drive Edgware HA8 8PS United Kingdom", "n": 5, "link_type": "Officer Corresponance Address", "node_type": "Company", "node": "07480594", "lat": "51.6184546", "lon": "-0.2750951"}, {"address": "15 The Drive Edgware HA8 8PS England", "n": 5, "link_type": "Person of Significant Control Address", "node_type": "Company", "node": "07480594", "lat": "51.6184546", "lon": "-0.2750951"}, {"address": "15 The Drive Edgware HA8 8PS", "n": 5, "link_type": "Historic Address", "node_type": "Company", "node": "07480594", "lat": "51.6184546", "lon": "-0.2750951"}, {"address": "475 Green Lanes London N4 1AJ United Kingdom", "n": 5, "link_type": "Officer Corresponance Address", "node_type": "Company", "node": "07476432", "lat": "51.58882546413662", "lon": "-0.10167093434535104"}, {"address": "20 Westerham Avenue London N9 9BU", "n": 5, "link_type": "Person of Significant Control Address", "node_type": "Company", "node": "07476432", "lat": "51.621635", "lon": "-0.0805997"}, {"address": "20 Westerham Avenue London N9 9BU", "n": 5, "link_type": "Historic Address", "node_type": "Company", "node": "07476432", "lat": "51.621635", "lon": "-0.0805997"}, {"address": "Room 540 Linen Hall London W1B 5TF United Kingdom", "n": 5, "link_type": "Officer Corresponance Address", "node_type": "Company", "node": "07442298", "lat": 51.512057, "lon": -0.139106}, {"address": "Room 540 Linen Hall London W1B 5TF", "n": 5, "link_type": "Historic Address", "node_type": "Company", "node": "07442298", "lat": 51.512057, "lon": -0.139106}, {"address": "24 Fall Lane Liversedge WF15 8AR United Kingdom", "n": 5, "link_type": "Officer Corresponance Address", "node_type": "Company", "node": "07524340", "lat": "53.6974307", "lon": "-1.7160566"}, {"address": "141 Fall Lane Liversedge WF15 8AT", "n": 5, "link_type": "Officer Corresponance Address", "node_type": "Company", "node": "07524340", "lat": "53.6974307", "lon": "-1.7160566"}, {"address": "141 Fall Lane Liversedge WF15 8AT", "n": 5, "link_type": "Person of Significant Control Address", "node_type": "Company", "node": "07524340", "lat": "53.6974307", "lon": "-1.7160566"}, {"address": "141 Fall Lane Liversedge WF15 8AT", "n": 5, "link_type": "Historic Address", "node_type": "Company", "node": "07524340", "lat": "53.6974307", "lon": "-1.7160566"}, {"address": " Shepley Bridge Marina Shepley Bridge Mirfield West Yorkshire WF14 9HR United Kingdom", "n": 5, "link_type": "Historic Address", "node_type": "Company", "node": "07524340", "lat": "53.673966199999995", "lon": "-1.676997006718123"}, {"address": "3 The Parade High Road Basildon SS13 3BA", "n": 5, "link_type": "Officer Corresponance Address", "node_type": "Company", "node": "07526910", "lat": 51.565211, "lon": 0.506863}, {"address": "3 The Parade High Road Basildon SS13 3BA", "n": 5, "link_type": "Historic Address", "node_type": "Company", "node": "07526910", "lat": 51.565211, "lon": 0.506863}, {"address": " 78 Ben Jonson Road Stepney Green London E1 3NN United Kingdom", "n": 5, "link_type": "Historic Address", "node_type": "Company", "node": "07526910", "lat": "51.51787655", "lon": "-0.039051678436154535"}, {"address": " C/O the Vault 47 Bury New Road Prestwich Manchester M25 9JY United Kingdom", "n": 5, "link_type": "Historic Address", "node_type": "Company", "node": "07526910", "lat": 53.519301, "lon": -2.27237}, {"address": "Technology House 151 Silbury Boulevard Milton Keynes MK9 1LH England", "n": 5, "link_type": "Officer Corresponance Address", "node_type": "Company", "node": "07445262", "lat": "52.0388842", "lon": "-0.7705519338086784"}, {"address": "6 Holford Way Luton LU3 4EB United Kingdom", "n": 5, "link_type": "Officer Corresponance Address", "node_type": "Company", "node": "07445262", "lat": "51.9240726", "lon": "-0.4319606"}, {"address": "Technology House Milton Keynes MK9 1LH", "n": 5, "link_type": "Historic Address", "node_type": "Company", "node": "07445262", "lat": "52.0388842", "lon": "-0.7705519338086784"}, {"address": "6 Holford Way Bartons Hill Luton Bedfordshire LU3 4EB United Kingdom", "n": 5, "link_type": "Historic Address", "node_type": "Company", "node": "07445262", "lat": 51.924969, "lon": -0.43217}, {"address": "", "n": 5, "link_type": "Historic Address", "node_type": "Company", "node": "07445262", "lat": "", "lon": ""}, {"address": "Suite 111 Viglen House 368 Alperton Lane 368 Alperton Lane Wembley Middlesex HA0 1HD United Kingdom", "n": 5, "link_type": "Historic Address", "node_type": "Company", "node": "07445262", "lat": 51.534882, "lon": -0.297949}, {"address": "12-14 Macon Court Crewe CW1 6EA United Kingdom", "n": 5, "link_type": "Officer Corresponance Address", "node_type": "Company", "node": "07502970", "lat": "53.0923171", "lon": "-2.4320046"}, {"address": "The Old Smithy Loft 253 Newton Road Warrington WA3 1LB England", "n": 5, "link_type": "Historic Address", "node_type": "Company", "node": "07502970", "lat": 53.466734, "lon": -2.568815}, {"address": "12/14 Macon Court Macon Way Crewe Cheshire CW1 6EA", "n": 5, "link_type": "Historic Address", "node_type": "Company", "node": "07502970", "lat": 53.092333, "lon": -2.431399}, {"address": " C/O the Vault 47 Bury New Road Prestwich Manchester M25 9JY United Kingdom", "n": 5, "link_type": "Historic Address", "node_type": "Company", "node": "07502970", "lat": 53.519301, "lon": -2.27237}, {"address": "104 Tarn Drive Poole BH17 7DQ England", "n": 5, "link_type": "Officer Corresponance Address", "node_type": "Company", "node": "07485185", "lat": "50.7458095", "lon": "-2.0025316"}, {"address": "2 Grange Drive Hinckley LE10 2JR England", "n": 5, "link_type": "Officer Corresponance Address", "node_type": "Company", "node": "07485185", "lat": "52.5250131", "lon": "-1.3634189"}, {"address": "2 Grange Drive Hinckley LE10 2JR", "n": 5, "link_type": "Person of Significant Control Address", "node_type": "Company", "node": "07485185", "lat": "52.5250131", "lon": "-1.3634189"}, {"address": "2 Grange Drive Hinckley LE10 2JR", "n": 5, "link_type": "Historic Address", "node_type": "Company", "node": "07485185", "lat": "52.5250131", "lon": "-1.3634189"}, {"address": "5 Jengers Mead Billingshurst RH14 9PB", "n": 5, "link_type": "Officer Corresponance Address", "node_type": "Company", "node": "07466288", "lat": "51.0241169", "lon": "-0.4516264"}, {"address": "5 Jengers Mead Billingshurst RH14 9PB", "n": 5, "link_type": "Historic Address", "node_type": "Company", "node": "07466288", "lat": "51.0241169", "lon": "-0.4516264"}, {"address": " 78 Ben Jonson Road Stepney Green London London E1 3NN United Kingdom", "n": 5, "link_type": "Historic Address", "node_type": "Company", "node": "07466288", "lat": "51.51787655", "lon": "-0.039051678436154535"}, {"address": " C/O the Vault 47 Bury New Road Prestwich Manchester M25 9JY United Kingdom", "n": 5, "link_type": "Historic Address", "node_type": "Company", "node": "07466288", "lat": 53.519301, "lon": -2.27237}, {"address": "5th Floor Maybrook House 40 Blackfriars Street Manchester M3 2EG United Kingdom", "n": 5, "link_type": "Officer Corresponance Address", "node_type": "Company", "node": "07495243", "lat": 53.483332, "lon": -2.246855}, {"address": "5th Floor Maybrook House Manchester M3 2EG", "n": 5, "link_type": "Historic Address", "node_type": "Company", "node": "07495243", "lat": 53.483332, "lon": -2.246855}, {"address": "C/O the Vault 47 Bury New Road Prestwich Manchester M25 9JY United Kingdom", "n": 5, "link_type": "Historic Address", "node_type": "Company", "node": "07495243", "lat": 53.519301, "lon": -2.27237}, {"address": "3 Eastwood Avenue Glasgow G46 6LS United Kingdom", "n": 5, "link_type": "Officer Corresponance Address", "node_type": "Company", "node": "SC393496", "lat": "55.8276261", "lon": "-4.2861835"}, {"address": "3 Eastwood Avenue Glasgow G46 6LS", "n": 5, "link_type": "Person of Significant Control Address", "node_type": "Company", "node": "SC393496", "lat": "55.8276261", "lon": "-4.2861835"}, {"address": "3 Eastwood Avenue Glasgow G46 6LS", "n": 5, "link_type": "Historic Address", "node_type": "Company", "node": "SC393496", "lat": "55.8276261", "lon": "-4.2861835"}, {"address": "9 Hope Street Glossop SK13 7SB", "n": 5, "link_type": "Officer Corresponance Address", "node_type": "Company", "node": "07447392", "lat": "53.451484", "lon": "-1.9346834"}, {"address": "9 Hope Street Glossop SK13 7SB", "n": 5, "link_type": "Person of Significant Control Address", "node_type": "Company", "node": "07447392", "lat": "53.451484", "lon": "-1.9346834"}, {"address": "9 Hope Street Glossop SK13 7SB", "n": 5, "link_type": "Historic Address", "node_type": "Company", "node": "07447392", "lat": "53.451484", "lon": "-1.9346834"}, {"address": " High Cark Cottage Field Broughton Grange-over-Sands Cumbria LA11 6HS United Kingdom", "n": 5, "link_type": "Historic Address", "node_type": "Company", "node": "07447392", "lat": 54.234152, "lon": -2.94955}, {"address": "Unit 3 Denton House Newcastle Upon Tyne NE5 1NB England", "n": 5, "link_type": "Officer Corresponance Address", "node_type": "Company", "node": "07508676", "lat": 55.00311, "lon": -1.695524}, {"address": "Unit 3 Denton House Newcastle Upon Tyne NE5 1NB", "n": 5, "link_type": "Person of Significant Control Address", "node_type": "Company", "node": "07508676", "lat": 55.00311, "lon": -1.695524}, {"address": "Unit 3 Denton House Newcastle Upon Tyne NE5 1NB", "n": 5, "link_type": "Historic Address", "node_type": "Company", "node": "07508676", "lat": 55.00311, "lon": -1.695524}, {"address": " Rowlands House Portobello Road Birtley, Chester Le Street County Durham DH3 2RY United Kingdom", "n": 5, "link_type": "Historic Address", "node_type": "Company", "node": "07508676", "lat": 54.892982, "lon": -1.560289}, {"address": "Tresco Westwood Avenue Addlestone KT15 3QF England", "n": 5, "link_type": "Officer Corresponance Address", "node_type": "Company", "node": "07447317", "lat": 51.343006, "lon": -0.513675}, {"address": "Tresco Westwood Avenue Addlestone KT15 3QF", "n": 5, "link_type": "Officer Corresponance Address", "node_type": "Company", "node": "07447317", "lat": 51.343006, "lon": -0.513675}, {"address": "Tresco Westwood Avenue Addlestone KT15 3QF", "n": 5, "link_type": "Person of Significant Control Address", "node_type": "Company", "node": "07447317", "lat": 51.343006, "lon": -0.513675}, {"address": "Tresco Westwood Avenue Addlestone KT15 3QF", "n": 5, "link_type": "Historic Address", "node_type": "Company", "node": "07447317", "lat": 51.343006, "lon": -0.513675}, {"address": " C/O the Vault 47 Bury New Road Prestwich Manchester M25 9JY United Kingdom", "n": 5, "link_type": "Historic Address", "node_type": "Company", "node": "07447317", "lat": 53.519301, "lon": -2.27237}, {"address": "Penny Lane Business Centre 374 Smithdown Road Liverpool L15 5AN England", "n": 5, "link_type": "Officer Corresponance Address", "node_type": "Company", "node": "07516949", "lat": 53.388885, "lon": -2.916947}, {"address": "Penny Lane Business Centre Liverpool L15 5AN", "n": 5, "link_type": "Historic Address", "node_type": "Company", "node": "07516949", "lat": 53.388885, "lon": -2.916947}, {"address": " C/O Bibby & Co (North West) Ltd Bilail House 260 Picton Road Wavertree Liverpool Merseyside L15 4LP United Kingdom", "n": 5, "link_type": "Historic Address", "node_type": "Company", "node": "07516949", "lat": 53.399285, "lon": -2.923773}, {"address": " Bilail House 260 Picton Road Wavertree Liverpool L15 4LP United Kingdom", "n": 5, "link_type": "Historic Address", "node_type": "Company", "node": "07516949", "lat": 53.399285, "lon": -2.923773}, {"address": "68 Port Rise Chatham ME4 6QA United Kingdom", "n": 5, "link_type": "Officer Corresponance Address", "node_type": "Company", "node": "07434042", "lat": "51.3785804", "lon": "0.5234256"}, {"address": "145-157 St. John Street London EC1V 4PW", "n": 5, "link_type": "Historic Address", "node_type": "Company", "node": "07434042", "lat": 51.523607, "lon": -0.102236}, {"address": " 14a Dowanhill Road London SE6 1HJ United Kingdom", "n": 5, "link_type": "Historic Address", "node_type": "Company", "node": "07434042", "lat": "51.4399296", "lon": "-0.0019629"}, {"address": " C/O the Vault 47 Bury New Road Prestwich Manchester M25 9JY United Kingdom", "n": 5, "link_type": "Historic Address", "node_type": "Company", "node": "07434042", "lat": 53.519301, "lon": -2.27237}, {"address": "The Glades Festival Way Stoke-On-Trent ST1 5SQ England", "n": 5, "link_type": "Officer Corresponance Address", "node_type": "Company", "node": "07434057", "lat": "53.0337155", "lon": "-2.1979721292872467"}, {"address": "29 Chapel Lane Rode Heath ST7 3SD United Kingdom", "n": 5, "link_type": "Officer Corresponance Address", "node_type": "Company", "node": "07434057", "lat": "53.1109578", "lon": "-2.2876281"}, {"address": "29 Chapel Lane Chapel Lane Stoke-On-Trent ST7 3SD England", "n": 5, "link_type": "Officer Corresponance Address", "node_type": "Company", "node": "07434057", "lat": "53.0451166", "lon": "-2.1959736"}, {"address": "29 Chapel Lane Stoke-On-Trent ST7 3SD United Kingdom", "n": 5, "link_type": "Officer Corresponance Address", "node_type": "Company", "node": "07434057", "lat": "53.0451166", "lon": "-2.1959736"}, {"address": "Css House Parkgate Road Chester CH1 6NN United Kingdom", "n": 5, "link_type": "Person of Significant Control Address", "node_type": "Company", "node": "07434057", "lat": 53.216835, "lon": -2.918195}, {"address": "Suite 8 The Meadows Chester CH4 9NG", "n": 5, "link_type": "Person of Significant Control Address", "node_type": "Company", "node": "07434057", "lat": 53.145382, "lon": -2.953255}, {"address": "The Glades Festival Way Stoke-On-Trent ST1 5SQ England", "n": 5, "link_type": "Historic Address", "node_type": "Company", "node": "07434057", "lat": "53.0337155", "lon": "-2.1979721292872467"}, {"address": "Css House Parkgate Road Mollington Chester CH1 6NN United Kingdom", "n": 5, "link_type": "Historic Address", "node_type": "Company", "node": "07434057", "lat": 53.216835, "lon": -2.918195}, {"address": "Suite 8 the Meadows Church Road Chester Cheshire CH4 9NG", "n": 5, "link_type": "Historic Address", "node_type": "Company", "node": "07434057", "lat": 53.145382, "lon": -2.953255}, {"address": "The Meadows Church Road Dodleston Chester CH4 9NG", "n": 5, "link_type": "Historic Address", "node_type": "Company", "node": "07434057", "lat": 53.145382, "lon": -2.953255}, {"address": " 9 Corbridge House the Square Seller Street Chester CH1 3AN", "n": 5, "link_type": "Historic Address", "node_type": "Company", "node": "07434057", "lat": 53.193332, "lon": -2.883177}, {"address": " 114-120 Northgate Street Chester CH1 2HT", "n": 5, "link_type": "Historic Address", "node_type": "Company", "node": "07434057", "lat": "53.1927621", "lon": "-2.892653"}, {"address": " 29 Chapel Lane Rode Heath Stoke on Trent ST7 3SD", "n": 5, "link_type": "Historic Address", "node_type": "Company", "node": "07434057", "lat": 53.110764, "lon": -2.28832}, {"address": " C/O the Vault 47 Bury New Road Prestwich Manchester M25 9JY United Kingdom", "n": 5, "link_type": "Historic Address", "node_type": "Company", "node": "07434057", "lat": 53.519301, "lon": -2.27237}, {"address": "145 - 157 St. John Street London EC1V 4PW England", "n": 5, "link_type": "Officer Corresponance Address", "node_type": "Company", "node": "07415232", "lat": 51.523607, "lon": -0.102236}, {"address": "186 A Moscow 121354 Russian Federation", "n": 5, "link_type": "Officer Corresponance Address", "node_type": "Company", "node": "07415232", "lat": "55.7504461", "lon": "37.6174943"}, {"address": "44a Brookfield Gardens R/O West Kirby CH48 4EL United Kingdom", "n": 5, "link_type": "Officer Corresponance Address", "node_type": "Company", "node": "07415232", "lat": 53.372358, "lon": -3.179494}, {"address": "Brookfield Dept R/O West Kirby M7 4AS United Kingdom", "n": 5, "link_type": "Officer Corresponance Address", "node_type": "Company", "node": "07415232", "lat": 53.507649, "lon": -2.253963}, {"address": "20 Wasserleitungsgasse Bad Voeslau 2540 Austria", "n": 5, "link_type": "Officer Corresponance Address", "node_type": "Company", "node": "07415232", "lat": "47.96219705", "lon": "16.205863899999997"}, {"address": "41 Nova Lehota Nova Lehota 91635 Slovak Republic", "n": 5, "link_type": "Officer Corresponance Address", "node_type": "Company", "node": "07415232", "lat": "48.6581939", "lon": "17.980755160856592"}, {"address": "145 - 157 St. John Street London EC1V 4PW England", "n": 5, "link_type": "Historic Address", "node_type": "Company", "node": "07415232", "lat": 51.523607, "lon": -0.102236}, {"address": "44a Brookfield Gardens R/O West Kirby Wirral CH48 4EL", "n": 5, "link_type": "Historic Address", "node_type": "Company", "node": "07415232", "lat": 53.372358, "lon": -3.179494}, {"address": " Brookfield Dept R/O Grange Road West Kirby Wirral CH48 4EQ United Kingdom", "n": 5, "link_type": "Historic Address", "node_type": "Company", "node": "07415232", "lat": 53.372543, "lon": -3.178041}, {"address": " Brookfield Dept R/O Grange Road West Kirby Wirral Merseyside CH48 4EQ United Kingdom", "n": 5, "link_type": "Historic Address", "node_type": "Company", "node": "07415232", "lat": 53.372543, "lon": -3.178041}, {"address": "110 Hammondstreet Road Waltham Cross EN7 6NX United Kingdom", "n": 5, "link_type": "Officer Corresponance Address", "node_type": "Company", "node": "07415021", "lat": 51.720069, "lon": -0.070017}, {"address": "110 Hammondstreet Road Waltham Cross EN7 6NX", "n": 5, "link_type": "Person of Significant Control Address", "node_type": "Company", "node": "07415021", "lat": 51.720069, "lon": -0.070017}, {"address": "110 Hammondstreet Road Waltham Cross EN7 6NX", "n": 5, "link_type": "Historic Address", "node_type": "Company", "node": "07415021", "lat": 51.720069, "lon": -0.070017}, {"address": " 14 Broadway Rainham Essex RM13 9YW", "n": 5, "link_type": "Historic Address", "node_type": "Company", "node": "07415021", "lat": 51.518828, "lon": 0.190129}, {"address": " 167 Turners Hill Cheshunt Waltham Cross Hertfordshire EN8 9BH United Kingdom", "n": 5, "link_type": "Historic Address", "node_type": "Company", "node": "07415021", "lat": "51.7049264", "lon": "-0.0343108"}, {"address": "Bank House 6-8church Street Chorley PR7 4EX England", "n": 5, "link_type": "Officer Corresponance Address", "node_type": "Company", "node": "07526199", "lat": 53.613715, "lon": -2.605222}, {"address": "20 Albion Road High Peak SK22 3EX", "n": 5, "link_type": "Officer Corresponance Address", "node_type": "Company", "node": "07526199", "lat": "53.3624132", "lon": "-2.0027753"}, {"address": "20 Albion Road High Peak SK22 3EX United Kingdom", "n": 5, "link_type": "Officer Corresponance Address", "node_type": "Company", "node": "07526199", "lat": "53.3624132", "lon": "-2.0027753"}, {"address": "Bank House 6-8church Street Chorley PR7 4EX England", "n": 5, "link_type": "Person of Significant Control Address", "node_type": "Company", "node": "07526199", "lat": 53.613715, "lon": -2.605222}, {"address": "Bank House 6-8 Church Street Chorley PR7 4EX", "n": 5, "link_type": "Historic Address", "node_type": "Company", "node": "07526199", "lat": 53.613715, "lon": -2.605222}, {"address": "Chichester House 2 Chichester Street Rochdale Lancashire OL16 2AX England", "n": 5, "link_type": "Historic Address", "node_type": "Company", "node": "07526199", "lat": 53.613566, "lon": -2.147837}, {"address": "Albion House 20 Albion Road New Mills High Peak Derbyshire SK22 3EX United Kingdom", "n": 5, "link_type": "Historic Address", "node_type": "Company", "node": "07526199", "lat": 53.36296, "lon": -2.001447}, {"address": "20 Albion Rd New Mills High Peak High Peak SK22 3EX", "n": 5, "link_type": "Historic Address", "node_type": "Company", "node": "07526199", "lat": "53.3624132", "lon": "-2.0027753"}, {"address": "Yardley Road Knowsley Industrial Park Liverpool L33 7SS", "n": 5, "link_type": "Officer Corresponance Address", "node_type": "Company", "node": "07460005", "lat": "53.4795179", "lon": "-2.8555914"}, {"address": "Yardley Road Kirkby L33 7SS", "n": 5, "link_type": "Person of Significant Control Address", "node_type": "Company", "node": "07460005", "lat": "53.4795179", "lon": "-2.8555914"}, {"address": "Yardley Road Kirkby L33 7SS", "n": 5, "link_type": "Historic Address", "node_type": "Company", "node": "07460005", "lat": "53.4795179", "lon": "-2.8555914"}, {"address": " C/O the Vault 47 Bury New Road Prestwich Manchester M25 9JY United Kingdom", "n": 5, "link_type": "Historic Address", "node_type": "Company", "node": "07460005", "lat": 53.519301, "lon": -2.27237}, {"address": "5 King Edward Avenue Aylesbury HP21 7JD", "n": 5, "link_type": "Officer Corresponance Address", "node_type": "Company", "node": "07500041", "lat": "51.8137737", "lon": "-0.7907572"}, {"address": "5 King Edward Avenue Aylesbury HP21 7JD England", "n": 5, "link_type": "Person of Significant Control Address", "node_type": "Company", "node": "07500041", "lat": "51.8137737", "lon": "-0.7907572"}, {"address": "5 King Edward Avenue Aylesbury HP21 7JD", "n": 5, "link_type": "Historic Address", "node_type": "Company", "node": "07500041", "lat": "51.8137737", "lon": "-0.7907572"}, {"address": " 12 Rylands Mews Lake Street Leighton Buzzard Beds LU7 1SP United Kingdom", "n": 5, "link_type": "Historic Address", "node_type": "Company", "node": "07500041", "lat": 51.915878, "lon": -0.660779}, {"address": "5 Brooklands Place Brooklands Road Sale M33 3SD United Kingdom", "n": 5, "link_type": "Officer Corresponance Address", "node_type": "Company", "node": "07492553", "lat": 53.416571, "lon": -2.326045}, {"address": "5 Brooklands Place Brooklands Road Sale M33 3SD United Kingdom", "n": 5, "link_type": "Person of Significant Control Address", "node_type": "Company", "node": "07492553", "lat": 53.416571, "lon": -2.326045}, {"address": "5 Brooklands Place Sale M33 3SD United Kingdom", "n": 5, "link_type": "Historic Address", "node_type": "Company", "node": "07492553", "lat": 53.416571, "lon": -2.326045}, {"address": "Holland House 1 - 5 Oakfield Sale Cheshire M33 6TT", "n": 5, "link_type": "Historic Address", "node_type": "Company", "node": "07492553", "lat": "", "lon": ""}, {"address": " 2Nd Floor Hanover House 30 Charlotte Street Manchester M1 4EX United Kingdom", "n": 5, "link_type": "Historic Address", "node_type": "Company", "node": "07492553", "lat": 53.478898, "lon": -2.239416}, {"address": "38 Fernwood Marple Bridge Marple SK6 5BE England", "n": 5, "link_type": "Officer Corresponance Address", "node_type": "Company", "node": "07396805", "lat": "53.4010176", "lon": "-2.0449238"}, {"address": "84 Strines Road Stockport SK6 7DU England", "n": 5, "link_type": "Officer Corresponance Address", "node_type": "Company", "node": "07396805", "lat": "53.3768356", "lon": "-2.0449981"}, {"address": "38 Fernwood Marple Bridge Marple SK6 5BE England", "n": 5, "link_type": "Person of Significant Control Address", "node_type": "Company", "node": "07396805", "lat": "53.4010176", "lon": "-2.0449238"}, {"address": "38 Fernwood Marple Bridge Marple SK6 5BE England", "n": 5, "link_type": "Historic Address", "node_type": "Company", "node": "07396805", "lat": "53.4010176", "lon": "-2.0449238"}, {"address": "23 Sandringham Road Gee Cross Hyde Cheshire SK14 5JA United Kingdom", "n": 5, "link_type": "Historic Address", "node_type": "Company", "node": "07396805", "lat": 53.437965, "lon": -2.076235}, {"address": "8 Crown Street Hawk Green Marple Stockport SK6 7JH United Kingdom", "n": 5, "link_type": "Historic Address", "node_type": "Company", "node": "07396805", "lat": "53.3834987", "lon": "-2.0618412"}, {"address": "84 Strines Road Marple Stockport Cheshire SK6 7DU", "n": 5, "link_type": "Historic Address", "node_type": "Company", "node": "07396805", "lat": "53.3710423", "lon": "-2.0366684"}, {"address": "Unit 7 Rassbottom Industrial Estate Stalybridge SK15 1RH England", "n": 5, "link_type": "Officer Corresponance Address", "node_type": "Company", "node": "07486200", "lat": 53.484099, "lon": -2.067201}, {"address": "Unit 7 Rassbottom Industrial Estate Stalybridge SK15 1RH England", "n": 5, "link_type": "Person of Significant Control Address", "node_type": "Company", "node": "07486200", "lat": 53.484099, "lon": -2.067201}, {"address": "277 Stockport Road Ashton-Under-Lyne OL7 0NT England", "n": 5, "link_type": "Historic Address", "node_type": "Company", "node": "07486200", "lat": "53.478749", "lon": "-2.1092612"}, {"address": "36 Chester Sq Ashton U Lyne Lancashire OL6 7TW", "n": 5, "link_type": "Historic Address", "node_type": "Company", "node": "07486200", "lat": 53.484836, "lon": -2.104229}, {"address": " 36 Chester Square Ashton-Under-Lyne Lancashire OL6 7TW United Kingdom", "n": 5, "link_type": "Historic Address", "node_type": "Company", "node": "07486200", "lat": 53.484836, "lon": -2.104229}, {"address": " C/O the Vault 47 Bury New Road Prestwich Manchester M25 9JY United Kingdom", "n": 5, "link_type": "Historic Address", "node_type": "Company", "node": "07486200", "lat": 53.519301, "lon": -2.27237}, {"address": "38 Hollow Road Leicester LE7 7FQ United Kingdom", "n": 5, "link_type": "Officer Corresponance Address", "node_type": "Company", "node": "07481103", "lat": 52.674077, "lon": -1.193152}, {"address": "38 Hollow Road Leicester LE7 7FQ", "n": 5, "link_type": "Person of Significant Control Address", "node_type": "Company", "node": "07481103", "lat": 52.674077, "lon": -1.193152}, {"address": "38 Hollow Road Leicester LE7 7FQ", "n": 5, "link_type": "Historic Address", "node_type": "Company", "node": "07481103", "lat": 52.674077, "lon": -1.193152}, {"address": "2 Polmanter Cottages Halsetown St Ives TR26 3NB England", "n": 5, "link_type": "Officer Corresponance Address", "node_type": "Company", "node": "07519455", "lat": 50.19585, "lon": -5.496668}, {"address": "The Old School St Ives TR26 1QU", "n": 5, "link_type": "Historic Address", "node_type": "Company", "node": "07519455", "lat": 50.210835, "lon": -5.484515}, {"address": "127 Barrington Avenue Hull HU5 4BB United Kingdom", "n": 5, "link_type": "Officer Corresponance Address", "node_type": "Company", "node": "07489709", "lat": "53.7686366", "lon": "-0.3773287"}, {"address": "127 Barrington Avenue Hull HU5 4BB", "n": 5, "link_type": "Person of Significant Control Address", "node_type": "Company", "node": "07489709", "lat": "53.7686366", "lon": "-0.3773287"}, {"address": "127 Barrington Avenue Hull HU5 4BB", "n": 5, "link_type": "Historic Address", "node_type": "Company", "node": "07489709", "lat": "53.7686366", "lon": "-0.3773287"}, {"address": "Russell House Oxford Road Bournemouth BH8 8EX", "n": 5, "link_type": "Officer Corresponance Address", "node_type": "Company", "node": "07443155", "lat": 50.724898, "lon": -1.865218}, {"address": "Russell House Oxford Road Bournemouth BH8 8EX England", "n": 5, "link_type": "Officer Corresponance Address", "node_type": "Company", "node": "07443155", "lat": 50.724898, "lon": -1.865218}, {"address": "227 London Road Romford RM7 9BQ United Kingdom", "n": 5, "link_type": "Officer Corresponance Address", "node_type": "Company", "node": "07443155", "lat": "51.5745095", "lon": "0.1639495"}, {"address": "Russell House Oxford Road Bournemouth BH8 8EX England", "n": 5, "link_type": "Person of Significant Control Address", "node_type": "Company", "node": "07443155", "lat": 50.724898, "lon": -1.865218}, {"address": "Russell House Bournemouth BH8 8EX", "n": 5, "link_type": "Historic Address", "node_type": "Company", "node": "07443155", "lat": 50.724898, "lon": -1.865218}, {"address": "227 London Road Romford Essex RM7 9BQ", "n": 5, "link_type": "Historic Address", "node_type": "Company", "node": "07443155", "lat": 51.573908, "lon": 0.165512}, {"address": "622 Chigwell Road Woodford Essex IG8 8AA", "n": 5, "link_type": "Historic Address", "node_type": "Company", "node": "07443155", "lat": "51.6099497", "lon": "0.0599265"}, {"address": " C/O the Vault 47 Bury New Road Prestwich Manchester M25 9JY United Kingdom", "n": 5, "link_type": "Historic Address", "node_type": "Company", "node": "07443155", "lat": 53.519301, "lon": -2.27237}, {"address": "48 Ravenscroft Avenue Wembley HA9 9TL United Kingdom", "n": 5, "link_type": "Officer Corresponance Address", "node_type": "Company", "node": "08338626", "lat": "51.5743853", "lon": "-0.2905819"}, {"address": "84 Brompton Road London SW3 1ER", "n": 5, "link_type": "Historic Address", "node_type": "Company", "node": "08338626", "lat": "51.5003514", "lon": "-0.1625358"}, {"address": "6 Fawsley Leys Rugby CV22 5QX", "n": 5, "link_type": "Officer Corresponance Address", "node_type": "Company", "node": "06302463", "lat": "52.3557357", "lon": "-1.2651439"}, {"address": "40 Roundway Egham TW20 8BX", "n": 5, "link_type": "Officer Corresponance Address", "node_type": "Company", "node": "06302463", "lat": 51.429517, "lon": -0.529034}, {"address": "PO BOX 55 London SE16 3QP", "n": 5, "link_type": "Officer Corresponance Address", "node_type": "Company", "node": "06302463", "lat": 51.495451, "lon": -0.075789}, {"address": "40 Roundway Surrey TW20 8BX", "n": 5, "link_type": "Historic Address", "node_type": "Company", "node": "06302463", "lat": "51.4294742", "lon": "-0.5286766"}, {"address": "", "n": 5, "link_type": "Historic Address", "node_type": "Company", "node": "06302463", "lat": "", "lon": ""}, {"address": "34 Coventry Street London W1D 6BT United Kingdom", "n": 5, "link_type": "Officer Corresponance Address", "node_type": "Company", "node": "06252314", "lat": "51.5100658", "lon": "-0.1345062"}, {"address": "34 Coventry Street London W1D 6BT", "n": 5, "link_type": "Person of Significant Control Address", "node_type": "Company", "node": "06252314", "lat": "51.5100658", "lon": "-0.1345062"}, {"address": "34 Coventry Street London W1D 6BT", "n": 5, "link_type": "Historic Address", "node_type": "Company", "node": "06252314", "lat": "51.5100658", "lon": "-0.1345062"}, {"address": " 128a 1St Floor Flat High Road Leyton London E15 2BX United Kingdom", "n": 5, "link_type": "Historic Address", "node_type": "Company", "node": "06252314", "lat": 51.554504, "lon": -0.005138}, {"address": " 34 Coventry Street Piccadilly London N10 6BT", "n": 5, "link_type": "Historic Address", "node_type": "Company", "node": "06252314", "lat": "", "lon": ""}, {"address": "39a Leicester Road Manchester M7 4AS England", "n": 5, "link_type": "Officer Corresponance Address", "node_type": "Company", "node": "07261717", "lat": "53.5101553", "lon": "-2.2529627"}, {"address": "50 Great Russell Street London WC1B 3BA England", "n": 5, "link_type": "Officer Corresponance Address", "node_type": "Company", "node": "07261717", "lat": "51.5183299", "lon": "-0.1258658"}, {"address": "Allen House Sutton SM1 4LA", "n": 5, "link_type": "Historic Address", "node_type": "Company", "node": "07261717", "lat": "51.36598655", "lon": "-0.17183860004595786"}, {"address": "50 Great Russell Street London WC1B 3BA", "n": 5, "link_type": "Historic Address", "node_type": "Company", "node": "07261717", "lat": "51.5183299", "lon": "-0.1258658"}, {"address": "38 Museum Street London WC1A 1LP", "n": 5, "link_type": "Historic Address", "node_type": "Company", "node": "07261717", "lat": "51.5167665", "lon": "-0.1247769"}, {"address": " 50 Great Russell Street London WC1B 3BA United Kingdom", "n": 5, "link_type": "Historic Address", "node_type": "Company", "node": "07261717", "lat": "51.5183299", "lon": "-0.1258658"}, {"address": " 2 Station Approach Marylebone Road London NW1 5LA United Kingdom", "n": 5, "link_type": "Historic Address", "node_type": "Company", "node": "07261717", "lat": 51.523131, "lon": -0.156879}, {"address": "69 Richmond Avenue Prestwich M25 0LW", "n": 5, "link_type": "Officer Corresponance Address", "node_type": "Company", "node": "07030752", "lat": "53.5185676", "lon": "-2.2686579"}, {"address": "Heskin Hall Farm Heskin PR7 5PA", "n": 5, "link_type": "Historic Address", "node_type": "Company", "node": "07030752", "lat": "53.63405555", "lon": "-2.7367250405640746"}, {"address": "92 Brompton Road London SW3 1ER England", "n": 5, "link_type": "Historic Address", "node_type": "Company", "node": "07030752", "lat": "51.5003514", "lon": "-0.1625358"}, {"address": "No 1 Olympic Way Wembley HA9 0NP England", "n": 5, "link_type": "Historic Address", "node_type": "Company", "node": "07030752", "lat": "51.56181535", "lon": "-0.27962543277395746"}, {"address": "7th Floor West Gate House West Gate Road London W5 1YY", "n": 5, "link_type": "Historic Address", "node_type": "Company", "node": "07030752", "lat": "", "lon": ""}, {"address": "7Th Floor West Gate London W5 1YY England", "n": 5, "link_type": "Historic Address", "node_type": "Company", "node": "07030752", "lat": "", "lon": ""}, {"address": "38 Museum Street London WC1A 1LP", "n": 5, "link_type": "Historic Address", "node_type": "Company", "node": "07030752", "lat": "51.5167665", "lon": "-0.1247769"}, {"address": " 38 Museum Street London WC1A 1LP United Kingdom", "n": 5, "link_type": "Historic Address", "node_type": "Company", "node": "07030752", "lat": "51.5167665", "lon": "-0.1247769"}, {"address": " 141 Franciscan Rd London SW17 8DS", "n": 5, "link_type": "Historic Address", "node_type": "Company", "node": "07030752", "lat": "51.4292721", "lon": "-0.1583003"}, {"address": "69 Richmond Avenue Prestwich M25 0LW", "n": 5, "link_type": "Officer Corresponance Address", "node_type": "Company", "node": "07016598", "lat": "53.5185676", "lon": "-2.2686579"}, {"address": "2 Station Approach London NW1 5LA", "n": 5, "link_type": "Historic Address", "node_type": "Company", "node": "07016598", "lat": "51.319336955", "lon": "-0.13863661"}, {"address": "141 Franciscan Rd London SW17 8DS", "n": 5, "link_type": "Historic Address", "node_type": "Company", "node": "07016598", "lat": "51.4292721", "lon": "-0.1583003"}, {"address": "69 Richmond Avenue Prestwich M25 0LW", "n": 5, "link_type": "Officer Corresponance Address", "node_type": "Company", "node": "07016589", "lat": "53.5185676", "lon": "-2.2686579"}, {"address": "2 Station Approach London NW1 5LA", "n": 5, "link_type": "Historic Address", "node_type": "Company", "node": "07016589", "lat": "51.319336955", "lon": "-0.13863661"}, {"address": "141 Franciscan Rd London SW17 8DS", "n": 5, "link_type": "Historic Address", "node_type": "Company", "node": "07016589", "lat": "51.4292721", "lon": "-0.1583003"}, {"address": "7 Bell Yard London WC2A 2JR England", "n": 5, "link_type": "Officer Corresponance Address", "node_type": "Company", "node": "02627227", "lat": "51.5142534", "lon": "-0.1117964"}, {"address": "120 East Road London N1 6AA", "n": 5, "link_type": "Officer Corresponance Address", "node_type": "Company", "node": "02627227", "lat": "51.5292915", "lon": "-0.0872925"}, {"address": "Bubblestone Farm The Green Otford TN14 5PE", "n": 5, "link_type": "Officer Corresponance Address", "node_type": "Company", "node": "02627227", "lat": 51.31259, "lon": 0.19005}, {"address": "The Stables Hadlow", "n": 5, "link_type": "Officer Corresponance Address", "node_type": "Company", "node": "02627227", "lat": "", "lon": ""}, {"address": "Rose Cottage Tonbridge TN12 8HN", "n": 5, "link_type": "Officer Corresponance Address", "node_type": "Company", "node": "02627227", "lat": "51.284641750000006", "lon": "0.3024983499999918"}, {"address": "The Vine Sevenoaks TN13 3TD", "n": 5, "link_type": "Officer Corresponance Address", "node_type": "Company", "node": "02627227", "lat": "51.2766272", "lon": "0.1930574"}, {"address": "1 Over The Line Windmill Lane Waltham Cross EN8 9AJ England", "n": 5, "link_type": "Officer Corresponance Address", "node_type": "Company", "node": "02627227", "lat": 51.703044, "lon": -0.023373}, {"address": "147a High Street Herts EN8 7LN", "n": 5, "link_type": "Officer Corresponance Address", "node_type": "Company", "node": "02627227", "lat": 51.684569, "lon": -0.030587}, {"address": "The Stables Caxton Place Tonbridge TN11 0JU", "n": 5, "link_type": "Officer Corresponance Address", "node_type": "Company", "node": "02627227", "lat": 51.216522, "lon": 0.355451}, {"address": "Seale House Sevenoaks TN13 3TD", "n": 5, "link_type": "Officer Corresponance Address", "node_type": "Company", "node": "02627227", "lat": 51.277289, "lon": 0.19306}, {"address": "7 Bell Yard London WC2A 2JR England", "n": 5, "link_type": "Person of Significant Control Address", "node_type": "Company", "node": "02627227", "lat": "51.5142534", "lon": "-0.1117964"}, {"address": "147a High Street Waltham Cross United Kingdom EN8 7AP England", "n": 5, "link_type": "Person of Significant Control Address", "node_type": "Company", "node": "02627227", "lat": 51.687433, "lon": -0.033501}, {"address": "7 Bell Yard London WC2A 2JR England", "n": 5, "link_type": "Historic Address", "node_type": "Company", "node": "02627227", "lat": "51.5142534", "lon": "-0.1117964"}, {"address": "64 Henley Street Stratford-upon-Avon CV37 6QN England", "n": 5, "link_type": "Historic Address", "node_type": "Company", "node": "02627227", "lat": "52.1943323", "lon": "-1.7089409"}, {"address": "38 Burgate Mercery Lane Canterbury Kent CT1 2JJ United Kingdom", "n": 5, "link_type": "Historic Address", "node_type": "Company", "node": "02627227", "lat": 51.278892, "lon": 1.080854}, {"address": "147a High Street Waltham Cross Herts EN8 7LN", "n": 5, "link_type": "Historic Address", "node_type": "Company", "node": "02627227", "lat": 51.684569, "lon": -0.030587}, {"address": "", "n": 5, "link_type": "Historic Address", "node_type": "Company", "node": "02627227", "lat": "", "lon": ""}, {"address": "48 Cornmarket Street Oxford OX1 3HA England", "n": 5, "link_type": "Officer Corresponance Address", "node_type": "Company", "node": "10098579", "lat": "51.7529901", "lon": "-1.2583361"}, {"address": "48 Cornmarket Street Oxford OX1 3HA England", "n": 5, "link_type": "Person of Significant Control Address", "node_type": "Company", "node": "10098579", "lat": "51.7529901", "lon": "-1.2583361"}, {"address": "71-75 Shelton Street London WC2H 9JQ England", "n": 5, "link_type": "Person of Significant Control Address", "node_type": "Company", "node": "10098579", "lat": "51.5148161", "lon": "-0.1235229"}, {"address": "48 Cornmarket Street Oxford OX1 3HA England", "n": 5, "link_type": "Historic Address", "node_type": "Company", "node": "10098579", "lat": "51.7529901", "lon": "-1.2583361"}, {"address": "71-75 Shelton Street London WC2H 9JQ England", "n": 5, "link_type": "Historic Address", "node_type": "Company", "node": "10098579", "lat": "51.5148161", "lon": "-0.1235229"}, {"address": "Unit 2 Juxon House St. Paul's Churchyard London EC4M 8BU United Kingdom", "n": 5, "link_type": "Historic Address", "node_type": "Company", "node": "10098579", "lat": 51.51415, "lon": -0.100251}, {"address": "49 Greenwich Church Street London SE10 9BL United Kingdom", "n": 5, "link_type": "Historic Address", "node_type": "Company", "node": "10098579", "lat": "51.48172085", "lon": "-0.010355596818500564"}, {"address": "16 Craven Road Paddington W2 3PX Uk", "n": 5, "link_type": "Officer Corresponance Address", "node_type": "Company", "node": "06817646", "lat": "51.5146813", "lon": "-0.1772424"}, {"address": "49 Greenwich Church Street London SE10 9BL England", "n": 5, "link_type": "Officer Corresponance Address", "node_type": "Company", "node": "06817646", "lat": "51.48172085", "lon": "-0.010355596818500564"}, {"address": "Unit 6 Crescent Arcade Greenwich London SE10 9EJ England", "n": 5, "link_type": "Historic Address", "node_type": "Company", "node": "06817646", "lat": 51.481614, "lon": -0.010711}, {"address": "16 Craven Road Paddington London W2 3PX", "n": 5, "link_type": "Historic Address", "node_type": "Company", "node": "06817646", "lat": "51.5146813", "lon": "-0.1772424"}, {"address": "", "n": 5, "link_type": "Historic Address", "node_type": "Company", "node": "06817646", "lat": "", "lon": ""}, {"address": "7 & 8 Kings Parade Cambridge CB2 1SJ England", "n": 5, "link_type": "Officer Corresponance Address", "node_type": "Company", "node": "08983187", "lat": "52.3260672", "lon": "0.3439695371519712"}, {"address": "7 & 8 Kings Parade Cambridge CB2 1SJ United Kingdom", "n": 5, "link_type": "Person of Significant Control Address", "node_type": "Company", "node": "08983187", "lat": "52.3260672", "lon": "0.3439695371519712"}, {"address": " Hurtwood 160a Huntingdon Road Cambridge CB3 0LB United Kingdom", "n": 5, "link_type": "Historic Address", "node_type": "Company", "node": "08983187", "lat": 52.220124, "lon": 0.099383},